gauge_id,gauge_name,gauge_lat,gauge_lon,gauge_easting,gauge_northing,gauge_elev,area,dpsbar,elev_mean,elev_min,elev_10,elev_50,elev_90,elev_max
10002,Ugie at Inverugie,57.53,-1.83,410113,848516,8.50,325.72,42.30,87,9.50,38.60,84.10,140.10,233.70
10003,Ythan at Ellon,57.36,-2.09,394684,830370,3.80,532.29,55.10,108,3.50,54.10,106.10,160.80,380.40
1001,Wick at Tarroul,58.48,-3.27,326202,954915,13.00,158.18,29.90,80,12.90,30.60,78.80,135.20,241.40
101002,Medina at Shide,50.69,-1.29,450359,88113,10.40,30.61,80.00,60,9.40,26.80,56.80,98.00,193.20
101005,Eastern Yar at Budbridge,50.65,-1.25,453120,83520,17.20,24.31,87.00,92,17.20,32.90,84.00,157.20,234.60
102001,Cefni at Bodffordd,53.27,-4.36,242925,376857,34.20,21.01,29.00,68,33.50,55.20,67.80,82.20,104.40
106001,Creed at Creed Bridge,58.20,-6.42,140187,932508,37.00,44.93,47.10,100,37.20,67.40,97.50,135.00,276.80
107001,Durkadale at Durkadale,59.11,-3.23,329532,1025280,28.20,19.60,69.50,99,25.80,39.10,98.70,164.00,222.00
11001,Don at Parkhill,57.22,-2.19,388770,814190,32.40,1269.14,111.40,262,34.70,89.60,220.40,509.00,873.90
11003,Don at Bridge of Alford,57.24,-2.72,356818,817072,133.20,509.94,161.00,408,135.50,230.90,394.80,605.60,873.90
11004,Urie at Pitcaple,57.32,-2.46,372104,825981,67.40,195.44,88.40,206,68.30,120.70,196.20,315.20,523.70
12001,Dee at Woodend,57.05,-2.60,363482,795613,70.50,1380.06,185.70,512,71.30,193.00,509.20,817.90,1308.90
12002,Dee at Park,57.08,-2.34,379739,798317,22.60,1833.21,169.40,447,23.80,138.90,435.10,768.10,1308.90
12005,Muick at Invermuick,57.04,-3.05,336423,794759,200.70,109.39,188.60,592,200.20,364.50,616.80,857.60,1149.00
12006,Gairn at Invergairn,57.06,-3.07,335231,797050,217.70,145.91,180.00,557,221.50,387.70,531.50,755.70,1160.40
12007,Dee at Mar Lodge,56.99,-3.49,309788,789522,331.90,292.00,235.20,682,334.10,478.40,649.30,942.70,1308.90
12008,Feugh at Heugh Head,57.03,-2.52,368703,792800,69.00,232.84,146.50,330,70.10,125.70,335.60,524.90,776.80
12009,Water of Dye at Charr,56.94,-2.62,362411,783457,239.00,42.03,144.60,420,235.00,321.20,417.90,529.20,774.60
13001,Bervie at Inverbervie,56.85,-2.29,382648,773370,70.00,124.47,85.30,149,7.00,67.40,123.00,286.80,463.40
13004,Prosen Water at Prosen Bridge,56.71,-2.99,339574,758549,109.30,107.53,209.70,431,108.40,247.10,413.30,648.00,946.10
13005,Lunan Water at Kirkton Mill,56.64,-2.56,365466,749433,8.60,128.93,44.40,97,9.90,46.20,96.70,150.50,251.00
13007,North Esk at Logie Mill,56.77,-2.49,369940,764029,10.60,747.04,141.50,311,12.50,58.50,270.00,650.00,935.70
13008,South Esk at Brechin,56.73,-2.66,359962,759665,18.00,489.69,163.20,342,19.00,74.50,305.90,710.60,1006.20
14001,Eden at Kemback,56.33,-2.95,341452,715796,6.20,308.74,72.70,109,7.10,41.40,100.60,190.10,520.40
14002,Dighty Water at Balmossie Mill,56.48,-2.85,347644,732508,16.10,127.62,62.30,147,18.50,65.20,138.70,235.30,454.00
14005,Motray Water at St Michaels,56.39,-2.91,344033,722381,19.00,58.30,91.40,80,7.60,24.60,78.40,140.00,278.80
15006,Tay at Ballathie,56.51,-3.39,314750,736680,26.20,4586.79,166.70,411,22.20,119.00,395.10,715.60,1210.00
15007,Tay at Pitnacree,56.66,-3.76,292403,753411,60.70,1149.08,230.00,467,65.80,178.20,464.60,749.70,1210.00
15010,Isla at Wester Cardean,56.61,-3.15,329426,746595,41.50,363.76,150.80,362,37.30,130.00,336.70,650.90,1067.30
15011,Lyon at Comrie Bridge,56.61,-3.98,278529,748684,92.10,388.33,272.10,552,94.90,283.90,563.70,805.60,1210.00
15012,Tummel at Pitlochry,56.70,-3.72,294718,757417,74.00,1666.33,166.10,485,80.10,271.40,453.00,756.80,1133.40
15013,Almond at Almondbank,56.42,-3.51,306715,725811,20.40,173.28,196.90,408,21.40,154.40,399.70,708.60,926.20
15014,Ardle at Kindrogan,56.75,-3.54,305619,763026,248.00,105.54,182.40,508,251.80,341.90,502.70,685.70,1105.60
15016,Tay at Kenmore,56.60,-3.99,278214,746706,100.40,598.28,226.50,446,99.70,161.20,451.50,730.30,1210.00
15021,Lunan Burn at Mill Bank,56.55,-3.33,318095,740023,35.00,94.45,100.50,180,32.90,52.90,142.00,366.00,560.40
15023,Braan at Hermitage,56.56,-3.61,301320,742158,52.60,210.72,147.00,408,56.90,261.60,397.00,583.50,866.60
15024,Dochart at Killin,56.46,-4.33,256401,731995,129.80,232.57,232.80,443,124.10,189.90,441.10,706.20,1170.30
15025,Ericht at Craighall,56.61,-3.35,317405,747165,76.20,437.40,173.00,452,73.30,250.50,423.60,707.40,1105.60
15030,Dean Water at Dean Bridge,56.60,-3.15,329300,745815,39.00,244.31,61.40,131,38.90,55.40,112.80,243.60,454.00
15039,Tilt at Marble Lodge,56.82,-3.82,289227,771575,237.60,166.44,246.60,675,238.20,497.80,680.40,849.80,1120.30
16001,Earn at Kinkell Bridge,56.33,-3.73,293313,716652,15.30,584.66,177.20,315,18.70,58.40,304.20,600.80,978.60
16003,Ruchill Water at Cultybraggan,56.36,-4.00,276441,720399,62.30,101.07,215.20,395,66.50,193.30,384.40,598.00,978.60
16004,Earn at Forteviot Bridge,56.35,-3.55,304401,718327,8.00,783.90,155.50,274,5.70,48.90,230.70,572.30,978.60
17001,Carron at Headswood,56.02,-3.88,283180,681818,17.80,121.14,98.80,244,19.30,80.20,246.60,395.10,561.90
17003,Bonny Water at Bonnybridge,56.00,-3.89,282421,680371,23.00,51.49,58.50,111,21.40,51.50,110.20,167.80,352.00
17004,Ore at Balfour Mains,56.18,-3.08,332965,699649,23.00,159.19,54.20,125,27.20,60.90,116.20,207.60,356.70
17005,Avon at Polmonthill,56.00,-3.68,295194,679657,4.30,194.81,56.50,161,4.40,81.00,168.10,218.70,310.70
17015,North Queich at Lathro,56.22,-3.43,311503,704113,114.10,24.60,100.50,249,114.00,129.80,253.60,377.10,492.30
17018,Greens Burn at Damleys Cottage,56.22,-3.36,315663,704025,111.00,10.35,69.20,169,109.90,118.30,156.70,236.60,432.80
18001,Allan Water at Kinbuck,56.23,-3.95,279225,705376,93.00,160.29,92.80,245,93.70,118.80,226.10,408.40,630.10
18002,Devon at Glenochil,56.14,-3.84,285815,696073,5.50,178.68,186.20,288,4.40,42.90,293.00,528.30,720.50
18003,Teith at Bridge of Teith,56.19,-4.06,272519,701136,14.80,515.61,234.30,338,16.10,112.50,321.90,608.80,1160.30
18008,Leny at Anie,56.26,-4.29,258523,709613,120.20,192.41,305.90,420,117.70,159.20,415.90,679.40,1160.30
18010,Forth at Gargunnock,56.13,-4.07,271411,695258,3.80,391.30,115.30,143,4.60,14.90,99.80,375.60,954.80
18011,Forth at Craigforth,56.14,-3.97,277658,695458,3.70,1027.64,NaN,NaN,2.50,18.90,181.20,529.10,1160.30
18014,Bannock Burn at Bannockburn,56.10,-3.91,281161,690814,12.40,25.37,88.80,179,14.60,51.80,172.50,324.30,439.80
18017,Monachyle Burn at Balquhidder,56.37,-4.47,247500,723000,292.00,6.89,241.10,505,301.60,372.30,486.30,669.60,878.20
18018,Kirkton Burn at Balquhidder,56.37,-4.38,253200,721900,246.00,7.01,317.50,544,244.70,339.60,567.40,744.50,851.20
19001,Almond at Craigiehall,55.96,-3.34,316538,675267,22.80,379.51,45.60,177,21.00,60.80,177.00,280.00,514.20
19006,Water of Leith at Murrayfield,55.95,-3.24,322792,673202,37.50,102.28,72.00,229,36.80,72.10,244.00,371.00,564.40
19010,Braid Burn at Liberton,55.92,-3.17,327249,670781,49.90,15.40,113.60,190,48.30,100.70,161.50,335.70,485.70
19017,Gogar Burn at Turnhouse,55.95,-3.35,316088,673289,32.10,40.31,43.00,112,33.50,47.10,99.20,199.70,346.90
19020,Almond at Whitburn,55.87,-3.68,294792,665548,156.30,32.03,38.30,210,156.20,168.30,208.40,256.30,294.70
20002,West Peffer Burn at Luffness,56.02,-2.82,348865,681117,4.20,25.51,30.90,32,3.80,11.70,27.40,59.10,135.20
20003,Tyne at Spilmersford,55.91,-2.87,345618,668891,69.10,162.77,65.60,195,69.90,98.60,184.20,321.60,495.30
20007,Gifford Water at Lennoxlove,55.94,-2.78,351108,671699,51.40,67.78,112.50,221,50.60,98.10,196.20,390.00,525.90
2001,Helmsdale at Kilphedir,58.14,-3.70,299839,918163,17.00,553.24,97.00,213,20.90,127.50,200.90,324.70,691.60
2002,Brora at Bruachrobie,58.01,-3.88,289156,903916,9.00,423.48,97.30,259,9.40,140.40,240.50,417.00,710.80
21003,Tweed at Peebles,55.65,-3.18,325821,640017,155.00,698.12,181.00,355,156.80,220.20,323.40,539.20,838.00
21006,Tweed at Boleside,55.59,-2.80,349823,633376,94.50,1505.54,191.90,358,94.20,212.50,341.50,529.30,838.00
21008,Teviot at Ormiston Mill,55.55,-2.47,370229,628038,43.20,1121.55,117.70,239,42.90,122.70,236.50,354.80,610.80
21009,Tweed at Norham,55.72,-2.16,389836,647709,4.30,4398.76,136.00,264,4.60,82.30,255.00,450.70,838.00
21011,Yarrow Water at Philiphaugh,55.54,-2.89,343911,627691,128.00,232.46,214.60,411,128.20,250.20,412.70,561.80,838.00
21012,Teviot at Hawick,55.43,-2.76,352232,615869,90.10,324.42,151.00,283,88.80,188.20,276.20,391.40,610.80
21013,Gala Water at Galashiels,55.63,-2.83,347932,637377,120.00,205.44,148.60,340,121.60,229.10,331.60,466.60,651.50
21015,Leader Water at Earlston,55.64,-2.69,356482,638801,103.00,239.11,106.30,292,102.90,187.10,288.20,411.30,525.90
21016,Eye Water at Eyemouth Mill,55.87,-2.09,394185,663565,2.90,118.93,68.70,150,5.00,67.20,151.20,226.00,411.30
21017,Ettrick Water at Brockhoperig,55.41,-3.21,323413,613150,259.00,38.59,241.50,470,257.60,343.10,477.60,585.40,691.40
21018,Lyne Water at Lyne Station,55.65,-3.26,320949,640033,168.00,174.00,131.20,304,170.00,221.40,287.10,417.90,564.40
21022,Whiteadder Water at Hutton Castle,55.79,-2.19,388077,655014,29.00,502.23,90.10,236,28.10,86.50,229.80,381.90,534.50
21023,Leet Water at Coldstream,55.65,-2.26,383980,639652,12.10,112.95,34.50,88,12.00,56.20,74.70,148.90,220.60
21024,Jed Water at Jedburgh,55.48,-2.55,365589,621368,65.60,139.95,111.60,253,69.50,158.70,240.80,361.00,578.00
21026,Tima Water at Deephope,55.41,-3.14,327820,613710,232.20,31.00,172.80,389,233.90,301.50,389.80,489.50,542.90
21027,Blackadder Water at Mouth Bridge,55.77,-2.28,382565,653028,56.60,155.34,56.70,195,58.00,99.30,206.50,274.90,446.00
22001,Coquet at Morwick,55.33,-1.63,423443,604453,5.20,578.25,110.00,225,5.20,79.30,192.80,420.00,774.50
22006,Blyth at Hartford Bridge,55.11,-1.62,424293,580003,24.60,273.67,31.90,115,24.00,57.80,110.50,185.40,265.20
22007,Wansbeck at Mitford,55.17,-1.73,417458,585790,31.40,282.01,50.80,182,30.80,93.90,176.10,283.10,442.20
22009,Coquet at Rothbury,55.31,-1.90,406706,601600,70.70,345.98,140.70,284,70.30,132.50,277.00,452.40,774.50
23001,Tyne at Bywell,54.95,-1.94,403858,561700,14.00,2172.36,93.70,286,15.00,140.60,264.50,469.50,891.90
23004,South Tyne at Haydon Bridge,54.98,-2.23,385656,564671,59.00,749.89,107.10,350,53.30,184.60,331.70,550.00,891.90
23006,South Tyne at Featherstone,54.94,-2.51,367216,561064,131.70,323.05,123.50,429,129.30,232.90,438.80,597.00,891.90
23007,Derwent at Rowlands Gill,54.92,-1.74,416815,558094,26.20,243.99,92.00,281,29.40,129.50,264.90,450.40,563.20
23008,Rede at Rede Bridge,55.14,-2.21,386837,583213,107.10,345.20,94.30,284,105.60,179.30,275.10,417.50,578.00
23011,Kielder Burn at Kielder,55.25,-2.56,364442,594681,214.00,58.59,136.60,408,214.60,280.20,421.00,519.00,602.50
23016,Ouse Burn at Crag Hall,55.00,-1.60,425409,567548,36.00,53.62,22.20,72,34.90,50.90,68.10,101.90,143.50
24001,Wear at Sunderland Bridge,54.73,-1.59,426520,537734,40.20,661.17,97.70,301,39.50,116.10,286.30,515.10,745.30
24003,Wear at Stanhope,54.75,-2.03,398366,539040,202.00,173.49,132.20,472,202.40,325.80,473.00,615.50,745.30
24004,Bedburn Beck at Bedburn,54.68,-1.82,411799,532192,109.00,74.12,109.00,316,109.90,194.80,322.20,432.10,532.60
24005,Browney at Burnhall,54.74,-1.60,425904,538688,43.90,179.00,77.50,197,47.10,104.10,198.40,287.80,377.90
25001,Tees at Darlington Broken Scar,54.52,-1.60,425923,513748,37.20,847.70,81.70,361,36.10,109.70,370.60,605.20,884.80
25003,Trout Beck at Moor House,54.70,-2.38,375782,533513,533.00,11.39,92.00,657,535.10,573.90,649.00,752.60,841.70
25006,Greta at Rutherford Bridge,54.51,-1.95,403361,512209,223.00,86.81,68.30,402,221.90,292.50,409.10,492.30,590.10
25012,Harwood Beck at Harwood,54.67,-2.23,384978,530916,374.00,24.58,121.00,539,374.00,425.10,541.60,644.80,713.10
25020,Skerne at Preston le Skerne,54.61,-1.55,429210,523780,67.50,152.76,35.90,112,69.40,79.70,107.40,149.70,218.30
25021,Skerne at Bradbury,54.65,-1.51,431818,528494,72.40,75.70,40.20,115,76.00,88.00,111.50,145.60,185.30
25029,Leven at Foxton Bridge,54.48,-1.30,445550,509381,4.90,183.86,76.70,131,19.50,66.40,95.30,262.70,452.60
26003,Foston Beck at Foston Mill,53.98,-0.33,509358,454867,6.40,59.59,48.40,77,7.00,13.10,77.10,136.00,162.90
26005,Gypsey Race at Boynton,54.09,-0.26,513681,467755,16.80,248.13,51.10,107,15.90,53.40,105.40,161.60,212.60
26006,Elmswell Beck at Little Driffield,54.00,-0.46,500905,457553,20.00,8.82,NaN,NaN,15.40,49.50,130.80,208.80,245.10
26008,Mires Beck at North Cave,53.77,-0.65,488996,431631,10.00,40.97,63.80,81,9.30,30.00,79.30,138.70,164.00
26009,West Beck at Snakeholme Lock,53.99,-0.37,506668,455589,8.00,195.60,55.10,105,7.90,27.30,97.90,199.40,245.10
27001,Nidd at Hunsingore Weir,53.97,-1.35,442802,452991,18.10,493.91,75.20,195,18.50,34.90,155.40,419.20,702.60
27002,Wharfe at Wetherby Flint Mill,53.92,-1.36,442215,447311,13.70,759.05,111.40,273,12.10,74.20,258.00,487.50,703.70
27003,Aire at Beal Weir,53.72,-1.20,453040,425471,5.50,1935.97,92.10,190,6.10,47.90,169.60,366.40,586.00
27006,Don at Sheffield Hadfields,53.41,-1.42,438931,390954,30.20,364.88,106.50,262,32.30,113.30,260.00,412.00,543.40
27007,Ure at Westwick Lock,54.10,-1.46,435599,467047,14.20,912.58,98.70,273,15.00,52.80,263.80,511.00,714.30
27009,Ouse at Skelton,53.99,-1.13,456845,455373,4.60,3300.80,69.10,185,5.60,22.60,118.00,457.50,714.30
27021,Don at Doncaster,53.53,-1.14,456977,403973,4.40,1252.87,76.70,154,5.30,47.60,124.20,314.10,543.40
27023,Dearne at Barnsley Weir,53.56,-1.47,434970,407279,43.40,119.56,74.40,148,41.30,79.60,140.60,224.80,376.40
27025,Rother at Woodhouse Mill,53.37,-1.35,443213,385749,28.70,354.94,69.20,134,32.00,67.50,122.30,212.10,392.20
27026,Rother at Whittington,53.27,-1.41,439339,374468,58.40,167.03,73.30,163,61.90,96.10,143.00,276.40,392.20
27029,Calder at Elland,53.69,-1.81,412434,421966,58.40,340.75,138.60,292,59.50,151.20,303.00,411.20,503.40
27030,Dearne at Adwick,53.51,-1.28,447677,402022,12.70,310.98,61.50,105,14.10,38.10,94.80,187.40,376.40
27032,Hebden Beck at Hebden,54.07,-1.96,402481,464255,228.20,22.25,99.40,453,228.10,337.80,457.80,565.50,692.70
27034,Ure at Kilgram Bridge,54.27,-1.71,419062,485989,87.50,510.94,129.60,366,85.60,171.10,368.50,545.60,714.30
27035,Aire at Kildwick Bridge,53.91,-1.98,401106,445684,87.30,283.39,99.60,230,87.90,123.60,200.70,389.50,586.00
27038,Costa Beck at Gatehouses,54.24,-0.81,477405,483621,21.90,8.85,34.10,78,26.50,28.40,77.00,143.10,164.30
27041,Derwent at Buttercrambe,54.02,-0.89,473112,458712,9.50,1594.24,76.80,128,9.50,25.40,102.40,271.90,453.20
27042,Dove at Kirkby Mills,54.26,-0.92,470468,485533,35.60,60.34,136.00,221,35.70,105.90,202.20,373.20,432.50
27043,Wharfe at Addingham,53.94,-1.86,409146,449298,79.70,430.00,138.10,360,79.60,191.20,363.80,535.50,703.70
27047,Snaizeholme Beck at Low Houses,54.29,-2.26,383309,488292,260.00,11.35,202.70,440,267.70,307.30,431.30,580.40,666.90
27049,Rye at Ness,54.20,-0.94,469439,479196,25.60,237.60,118.00,223,27.20,89.30,227.20,346.40,453.20
27051,Crimple at Burn Bridge,53.96,-1.57,428386,451880,112.00,8.17,62.90,174,110.20,133.60,171.10,218.80,243.10
27062,Nidd at Skip Bridge,54.00,-1.27,448247,456080,8.20,523.47,71.80,185,10.30,29.50,144.50,413.60,702.60
27064,Went at Walden Stubbs,53.64,-1.17,455064,416309,5.70,86.34,34.20,49,8.10,26.40,49.20,69.80,94.80
27065,Holme at Queens Mill,53.64,-1.79,414229,415754,68.10,100.70,134.20,276,68.70,149.80,262.30,423.20,580.30
27071,Swale at Crakehill,54.15,-1.35,442503,473339,12.00,1354.43,66.90,182,14.60,31.40,104.10,464.10,714.30
27073,Brompton Beck at Snainton Ings,54.20,-0.57,493627,479462,9.00,8.06,47.70,82,21.10,22.70,63.90,189.10,222.20
27077,Bradford Beck at Shipley,53.83,-1.77,415123,437472,68.00,57.59,79.90,193,68.40,120.40,186.00,279.00,402.10
27079,Calder at Methley,53.73,-1.38,440828,425695,17.00,950.18,104.60,205,11.50,50.40,188.40,386.80,580.30
27080,Aire at Oulton Lemonroyd,53.75,-1.42,438170,428169,18.00,861.58,86.70,194,13.10,75.20,175.40,344.90,586.00
27084,Eastburn Beck at Crosshills,53.90,-1.97,402035,445263,89.00,41.01,114.20,260,87.90,152.90,269.50,343.10,442.10
27087,Derwent at Low Marishes,54.19,-0.73,483290,477405,15.00,475.94,67.30,101,16.70,24.00,84.50,208.70,295.70
27089,Wharfe at Tadcaster,53.89,-1.28,447706,444103,6.60,815.35,106.30,258,5.30,58.10,239.90,480.80,703.70
27090,Swale at Catterick Bridge,54.39,-1.65,422618,499315,60.00,497.56,119.00,358,57.20,150.50,363.90,549.20,714.30
28001,Derwent at Yorkshire Bridge,53.36,-1.70,419810,385090,159.40,126.71,190.70,416,160.00,279.40,424.70,528.70,631.20
28003,Tame at Water Orton,52.52,-1.75,416940,291460,74.40,405.60,33.40,144,76.00,108.50,141.30,181.70,290.80
28008,Dove at Rocester Weir,52.95,-1.83,411240,339670,86.30,397.97,112.60,270,84.10,159.40,274.70,370.50,546.10
28009,Trent at Colwick,52.95,-1.08,462010,339960,16.00,7466.40,53.70,142,17.50,64.20,118.60,273.70,635.50
28012,Trent at Yoxall,52.76,-1.81,413210,317720,56.40,1206.60,41.70,129,58.20,86.50,121.00,184.90,331.30
28015,Idle at Mattersey,53.40,-0.96,469010,389520,3.80,528.18,32.70,77,5.70,20.70,69.90,149.30,205.00
28018,Dove at Marston on Dove,52.86,-1.65,423740,328840,47.20,884.07,91.90,217,45.50,97.90,210.20,342.10,546.10
28022,Trent at North Muskham,53.14,-0.80,480430,360560,4.90,8209.42,51.60,134,4.80,50.70,112.70,260.20,635.50
28023,Wye at Ashford,53.22,-1.73,418250,369680,139.00,152.28,117.70,340,141.50,281.60,334.80,414.00,550.50
28024,Wreake at Syston Mill,52.71,-1.09,461510,312460,47.70,417.01,40.60,117,47.30,76.10,116.70,156.20,229.30
28026,Anker at Polesworth,52.63,-1.61,426280,303340,60.40,371.58,26.80,108,62.10,78.90,102.80,144.30,275.40
28031,Manifold at Ilam,53.05,-1.79,413980,350720,131.00,148.15,117.10,308,133.40,235.80,304.00,394.70,508.10
28033,Dove at Hollinsclough,53.20,-1.91,406320,366830,280.50,7.92,166.70,408,281.10,347.60,406.20,475.00,546.10
28039,Rea at Calthorpe Park,52.46,-1.90,407070,284710,104.20,73.68,44.40,168,106.80,133.70,165.70,205.80,290.80
28040,Trent at Stoke-On-Trent,53.02,-2.16,389170,346670,113.20,58.52,68.30,185,112.90,138.70,182.30,240.50,331.30
28043,Derwent at Chatsworth,53.21,-1.61,426060,368360,99.00,344.34,158.70,335,101.00,177.60,327.30,500.20,635.50
28044,Poulter at Cuckney,53.24,-1.15,457130,371400,47.00,33.96,36.20,111,45.50,62.60,102.10,165.70,186.80
28046,Dove at Izaak Walton,53.06,-1.78,414710,351000,131.40,85.69,141.20,317,138.70,240.00,315.70,396.10,546.10
28048,Amber at Wingfield Park,53.06,-1.44,437540,352000,71.20,128.63,68.10,158,72.90,101.60,139.10,263.10,341.50
28050,Torne at Auckley,53.50,-1.03,464580,401220,1.60,130.20,21.40,37,2.20,7.40,23.00,88.90,144.90
28052,Sow at Great Bridgeford,52.84,-2.17,388350,326980,77.10,141.77,45.20,125,78.70,94.30,119.80,162.70,234.60
28055,Ecclesbourne at Duffield,53.00,-1.53,431940,344640,69.40,51.06,106.90,167,69.40,102.00,159.20,247.60,355.50
28056,Rothley Brook at Rothley,52.70,-1.14,458060,312130,47.40,91.89,38.40,114,48.40,73.10,109.50,163.30,232.10
28060,Dover Beck at Lowdham,53.02,-1.03,465290,347950,28.30,62.67,54.00,88,28.70,50.60,87.60,125.00,161.30
28066,Cole at Coleshill,52.48,-1.73,418170,287360,79.40,119.37,25.40,127,79.40,95.80,124.30,161.90,202.40
28067,Derwent at Church Wilne,52.88,-1.35,444130,331650,31.00,1176.63,108.90,241,30.70,91.10,237.80,404.40,635.50
28072,Greet at Southwell,53.08,-0.93,471490,353940,19.70,59.91,44.00,68,20.10,36.60,63.60,106.30,154.20
28074,Soar at Kegworth,52.83,-1.27,449160,326250,32.00,1300.47,36.40,105,31.50,61.00,102.50,152.00,272.30
28080,Tame at Lea Marston Lakes,52.54,-1.69,420800,293700,66.20,795.10,30.50,132,66.50,93.60,131.60,168.90,290.80
28081,Tame at Bescot,52.56,-1.98,401400,295690,107.30,174.46,27.30,149,107.30,127.40,143.50,178.00,270.70
28082,Soar at Littlethorpe,52.57,-1.20,454200,297320,61.40,180.56,26.00,103,63.90,78.70,101.60,128.00,151.30
28085,Derwent at St Mary's Bridge,52.93,-1.47,435390,336880,44.00,1051.02,117.30,259,43.90,111.60,262.60,414.00,635.50
28091,Ryton at Blyth,53.38,-1.05,463145,387128,8.00,228.23,31.50,71,9.50,24.00,62.60,121.10,156.00
28093,Soar at Pillings Lock,52.76,-1.16,456550,318060,38.00,1110.11,36.10,108,36.90,67.50,106.00,151.40,245.80
28115,Maun at Mansfield the Dykes,53.17,-1.16,455970,363620,69.20,30.56,43.40,137,71.10,104.10,139.20,167.30,191.40
28116,Maun at Whitewater Bridge,53.23,-1.01,466320,370400,31.90,156.00,38.00,101,34.20,59.60,95.10,152.80,191.70
28117,Derwent at Whatstandwell,53.09,-1.51,433140,354560,68.70,747.55,133.10,306,69.00,167.80,307.20,443.80,635.50
29002,Great Eau at Claythorpe Mill,53.29,0.12,541600,379310,6.60,80.43,52.50,68,8.50,22.30,63.70,115.40,148.30
29003,Lud at Louth,53.37,0.01,533700,387900,15.40,56.42,59.90,91,16.20,51.00,88.90,130.40,153.00
29005,Rase at Bishopbridge,53.41,-0.45,503210,391180,4.10,63.27,28.80,49,7.90,15.10,34.80,120.40,160.80
29009,Ancholme at Toft Newton,53.37,-0.45,503210,387470,7.70,29.31,12.30,32,9.20,13.80,26.00,58.60,67.70
30001,Witham at Claypole Mill,53.02,-0.75,484200,347960,16.90,295.67,30.40,86,17.30,31.80,91.30,134.90,157.00
30004,Lymn at Partney Mill,53.19,0.10,540170,367590,14.90,60.09,53.30,65,13.70,33.30,60.80,104.80,145.60
30005,Witham at Saltersford Total,52.89,-0.62,492700,333500,57.70,123.46,31.00,120,56.60,97.40,121.90,141.70,157.00
30011,Bain at Goulceby Bridge,53.30,-0.13,524590,379430,52.20,64.55,44.70,108,52.90,76.10,113.60,133.50,153.30
30012,Stainfield Beck at Cream Poke Farm,53.25,-0.31,512660,373930,7.70,38.22,29.00,59,9.20,21.50,53.30,103.40,135.30
30014,Pointon Lode at Pointon,52.87,-0.33,512792,331246,2.70,10.93,29.00,43,7.60,18.10,44.70,67.20,80.60
30015,Cringle Brook at Stoke Rochford,52.86,-0.63,492460,329680,76.00,41.27,32.90,129,70.60,107.40,131.50,148.10,157.00
3003,Oykel at Easter Turnaig,57.96,-4.70,240305,900145,15.60,331.67,148.20,297,20.30,154.90,273.80,479.40,1005.80
31002,Glen at Kates Br & King St Br,52.72,-0.36,510620,314870,6.10,337.88,30.50,63,8.20,24.20,73.20,110.90,134.50
31006,Gwash at Belmesthorpe,52.68,-0.47,503770,309720,24.00,149.17,36.60,103,24.00,61.50,100.90,147.40,212.00
31010,Chater at Fosters Bridge,52.62,-0.58,496070,303020,38.40,68.81,61.50,113,38.80,70.10,107.50,164.10,229.30
31021,Welland at Ashley,52.52,-0.79,481880,291570,55.70,247.08,47.20,115,56.20,76.70,113.40,155.70,215.80
31023,West Glen at Easton Wood,52.82,-0.57,496580,325840,81.00,4.32,32.80,108,78.40,92.10,110.50,120.80,122.70
31025,Gwash South Arm at Manton,52.64,-0.71,487410,305070,83.90,23.68,61.20,147,85.40,110.90,149.50,182.60,212.00
32003,Harpers Brook at Old Mill Bridge,52.41,-0.56,498360,279840,30.30,70.46,37.70,89,30.50,57.40,90.40,122.20,145.90
32004,Ise Brook at Harrowden,52.33,-0.68,489920,271250,45.30,194.36,40.00,108,47.20,73.00,107.10,145.60,195.50
32006,Nene/Kislingbury at Upton Total,52.23,-0.95,472080,259190,61.60,220.69,47.40,124,61.10,87.80,125.50,160.60,223.90
32008,Nene/Kislingbury at Dodford,52.24,-1.08,462750,260700,79.20,104.26,41.70,131,80.50,102.30,130.20,161.00,212.70
33006,Wissey at Northwold Total,52.54,0.61,577107,296526,5.30,259.37,19.60,46,7.70,24.60,45.60,70.30,94.30
33007,Nar at Marham,52.68,0.55,572348,311976,4.60,147.39,23.40,58,7.50,20.70,64.10,80.40,92.30
33012,Kym at Meagre Farm,52.25,-0.31,515607,263134,17.20,138.15,26.10,61,18.20,32.70,62.80,87.70,103.70
33013,Sapiston at Rectory Bridge,52.38,0.78,589559,279048,15.60,196.16,18.50,52,13.10,34.50,52.60,69.10,94.60
33014,Lark at Temple,52.33,0.58,575805,272944,8.90,274.04,23.30,59,9.90,28.70,53.30,97.90,124.70
33018,Tove at Cappenham Bridge,52.13,-0.96,471144,248673,80.80,132.54,37.10,132,84.20,104.30,133.60,160.40,186.30
33019,Thet at Melford Bridge,52.41,0.76,587961,283000,10.50,311.37,13.90,39,10.10,24.60,38.60,52.60,71.30
33020,Alconbury Brook at Brampton,52.33,-0.23,520832,271757,9.40,212.72,24.80,47,9.50,19.30,48.40,71.60,87.90
33021,Rhee at Burnt Mill,52.15,0.07,541538,252368,8.90,308.05,24.80,49,9.40,19.80,40.60,95.90,165.50
33022,Ivel at Blunham,52.14,-0.32,515288,250922,18.90,539.63,31.20,73,19.00,37.50,68.00,118.40,182.50
33023,Lea Brook at Beck Bridge,52.33,0.44,566235,273254,3.90,131.89,22.40,65,8.00,14.70,72.90,108.10,122.30
33024,Cam at Dernford,52.13,0.14,546686,250642,14.70,199.59,37.80,82,15.40,31.40,89.80,115.20,144.20
33026,Bedford Ouse at Offord,52.29,-0.22,521661,266946,10.90,2566.31,29.10,84,4.70,34.90,84.20,132.10,247.30
33028,Flit at Shefford,52.04,-0.34,514241,239310,36.60,119.43,36.60,89,37.40,59.10,88.90,119.80,163.80
33029,Stringside at Whitebridge,52.58,0.53,571602,300623,2.50,95.41,13.50,25,7.20,9.50,20.00,53.40,82.70
33031,Broughton Brook at Broughton,52.06,-0.71,488837,240914,56.60,70.06,29.10,98,58.70,65.90,92.20,138.10,170.60
33032,Heacham at Heacham,52.91,0.50,568523,337484,9.40,56.16,25.60,57,10.20,34.90,60.50,72.00,92.30
33033,Hiz at Arlesey,52.03,-0.27,519004,237883,35.70,112.96,35.60,87,35.50,51.00,84.00,136.10,178.60
33034,Little Ouse at Abbey Heath,52.43,0.72,585089,284362,7.20,707.75,16.30,42,8.10,25.30,41.70,60.00,94.60
33035,Ely Ouse at Denver Complex,52.58,0.34,558775,301011,1.50,3580.76,18.50,39,-1.30,6.10,34.40,84.90,165.50
33039,Bedford Ouse at Roxton,52.17,-0.31,516004,253461,15.70,1662.31,30.00,95,4.70,46.40,96.50,137.30,247.30
33053,Granta at Stapleford,52.14,0.15,547084,251462,14.50,113.98,33.90,75,15.40,31.80,79.00,110.10,125.20
33054,Babingley at Castle Rising,52.80,0.49,568007,325264,4.50,48.53,28.40,52,10.50,17.60,56.10,81.00,93.40
33058,Ouzel at Bletchley,51.98,-0.72,488293,232162,66.20,221.11,35.80,113,68.00,88.40,109.50,142.80,247.30
34002,Tas at Shotesham,52.55,1.28,622583,299391,9.60,153.19,19.50,44,9.40,29.80,45.60,54.60,71.40
34003,Bure at Ingworth,52.82,1.25,619214,329614,12.20,161.27,23.40,51,12.40,30.50,48.40,77.50,104.50
34004,Wensum at Costessey Mill,52.67,1.22,617682,312740,5.20,559.70,20.50,50,5.30,29.40,50.00,71.10,96.10
34005,Tud at Costessey Park,52.66,1.21,616966,311275,9.40,72.11,20.30,46,10.00,34.50,47.40,57.70,81.90
34006,Waveney at Needham Mill,52.38,1.27,622906,281137,16.50,376.07,15.90,46,16.00,31.20,47.50,59.80,65.30
34007,Dove at Oakley Park,52.35,1.19,617520,277092,21.00,139.37,15.20,51,21.70,38.90,52.00,61.20,65.30
34008,Ant at Honing Lock,52.79,1.46,633119,327041,1.90,44.43,21.40,31,9.00,15.30,32.30,46.50,63.90
34010,Waveney at Billingford Bridge,52.36,1.18,616787,278241,20.30,150.12,15.20,41,20.90,28.70,42.10,52.30,61.00
34011,Wensum at Fakenham,52.83,0.85,591936,329335,33.70,162.93,16.80,62,33.00,46.60,62.70,75.50,92.80
34012,Burn at Burnham Overy,52.95,0.74,584198,342742,2.60,83.87,26.80,48,5.00,21.90,51.90,64.50,82.50
35003,Alde at Farnham,52.19,1.45,636008,260105,5.20,62.78,26.10,41,6.40,20.70,43.30,54.80,63.20
35008,Gipping at Stowmarket,52.18,1.01,605756,257940,25.10,125.85,24.60,63,25.60,44.00,62.00,83.00,97.50
36003,Box at Polstead,52.00,0.89,598528,237881,15.90,56.72,26.60,60,17.30,43.20,62.40,72.30,85.20
36006,Stour at Langham,51.97,0.94,602067,234431,6.40,571.36,33.60,75,7.10,40.00,74.80,109.90,127.60
36009,Brett at Cockfield,52.14,0.79,591353,252546,59.40,25.56,18.40,87,59.00,78.20,88.70,93.60,110.70
36010,Bumpstead Brook at Broad Green,52.05,0.46,568927,241819,55.80,27.58,34.10,96,57.00,74.40,98.10,115.90,125.20
36011,Stour Brook at Sturmer,52.07,0.47,569640,244098,54.60,34.24,33.50,98,54.80,75.00,100.00,116.10,123.00
36012,Stour at Kedington,52.08,0.49,570848,245012,52.50,76.64,30.10,97,53.90,76.60,100.30,113.50,123.00
37001,Roding at Redbridge,51.58,0.04,541499,188348,5.70,301.05,29.90,68,8.40,36.20,70.80,93.30,116.90
37003,Ter at Crabbs Bridge,51.77,0.59,578645,210753,14.50,77.76,18.60,59,14.80,39.40,60.60,76.60,93.20
37005,Colne at Lexden,51.90,0.85,596249,226113,8.20,235.88,30.40,66,10.40,40.00,68.00,90.60,113.60
37008,Chelmer at Springfield,51.74,0.48,571303,207126,23.10,189.62,27.80,77,22.10,48.20,80.40,104.90,122.40
37009,Brain at Guithavon Valley,51.80,0.63,581753,214748,16.20,60.27,24.20,64,14.70,39.60,66.40,85.80,95.80
37010,Blackwater at Appleford Bridge,51.81,0.67,584463,215816,14.60,249.12,25.90,67,14.20,35.90,66.20,103.40,124.60
37011,Chelmer at Churchend,51.88,0.37,562886,223350,51.80,72.78,31.90,94,52.10,73.10,95.40,111.60,122.40
37018,Ingrebourne at Gaynes Park,51.55,0.24,555163,186177,11.60,44.73,43.30,62,8.70,29.00,64.90,94.30,117.30
37019,Beam at Bretons Farm,51.55,0.18,551533,185330,5.80,51.54,27.70,41,5.80,13.70,35.10,77.80,103.90
37020,Chelmer at Felsted,51.85,0.42,567088,219360,40.10,133.45,29.60,86,41.20,64.20,87.80,108.00,122.40
37031,Crouch at Wickford,51.61,0.52,574811,193386,5.80,70.15,29.60,37,5.80,15.50,32.10,68.20,116.50
37033,Eastwood Brook at Eastwood,51.57,0.68,585856,188875,12.10,9.85,29.60,45,12.90,22.40,44.00,69.00,83.20
38001,Lee at Feildes Weir,51.76,0.01,539074,209193,27.70,1045.10,36.50,99,25.50,63.60,98.70,137.10,226.10
38003,Mimram at Panshanger Park,51.80,-0.14,528256,213276,47.10,130.20,44.20,121,48.20,82.40,122.70,154.40,193.00
38004,Rib at Wadesmill,51.84,-0.03,535990,217444,47.10,136.78,38.40,112,46.50,82.20,114.20,139.60,167.70
38007,Canons Brook at Elizabeth Way,51.77,0.07,543166,210394,37.50,20.76,29.30,75,39.00,58.90,72.80,97.50,107.40
38012,Stevenage Brook at Bragbury Park,51.87,-0.15,527488,221164,71.40,35.10,31.70,105,65.90,85.80,100.70,129.20,144.70
38014,Salmon Brook at Edmonton,51.63,-0.06,534361,193703,12.40,22.87,48.30,62,15.60,28.60,62.60,93.70,128.50
38017,Mimram at Whitwell,51.88,-0.28,518410,221210,88.10,38.40,48.30,138,86.20,114.80,140.90,160.00,193.00
38018,Upper Lee at Water Hall,51.77,-0.12,529980,209950,43.60,157.74,40.50,114,43.90,74.90,116.60,153.10,226.10
38021,Turkey Brook at Albany Park,51.67,-0.04,535980,198500,16.60,41.49,55.30,78,18.80,40.50,77.90,116.50,127.30
38026,Pincey Brook at Sheering Hall,51.79,0.17,549535,212702,43.10,52.68,24.00,82,45.30,67.40,81.00,99.50,110.50
38029,Quin at Griggs Bridge,51.90,0.02,539125,224786,67.30,50.40,34.70,118,68.20,96.50,119.40,138.70,158.00
38030,Beane at Hartham,51.80,-0.08,532503,213143,35.40,173.85,39.00,104,37.90,73.00,107.30,132.90,151.70
39001,Thames at Kingston,51.42,-0.31,517780,169850,4.70,9930.80,42.00,109,3.40,50.40,99.70,181.80,330.20
39002,Thames at Days Weir,51.64,-1.18,456880,193620,45.80,3480.00,37.10,122,43.40,67.10,111.70,195.00,330.20
39004,Wandle at Beddington Park,51.37,-0.14,529630,165480,33.10,117.35,75.40,145,31.70,78.90,154.90,197.20,268.40
39005,Beverley Brook at Wimbledon Common,51.43,-0.25,521614,171745,11.00,39.49,26.60,41,8.80,15.90,31.70,87.90,170.90
39006,Windrush at Newbridge,51.71,-1.42,440179,201858,63.40,361.60,60.50,178,64.40,99.30,181.00,252.90,317.20
39007,Blackwater at Swallowfield,51.38,-0.95,473090,164780,42.30,359.81,32.10,88,43.00,59.80,80.30,126.40,224.50
39008,Thames at Eynsham,51.78,-1.36,444499,208703,59.70,1626.76,39.00,135,60.00,76.00,118.40,222.70,330.20
39010,Colne at Denham,51.57,-0.48,505180,186360,34.10,725.90,42.70,121,33.30,73.80,117.80,174.10,266.20
39011,Wey at Tilford,51.18,-0.75,487450,143270,47.80,391.32,59.00,131,48.90,77.00,126.00,190.70,280.30
39012,Hogsmill at Kingston upon Thames,51.41,-0.30,518192,168783,6.10,72.91,32.10,72,6.90,22.80,54.50,154.30,193.60
39014,Ver at Hansteads,51.70,-0.34,515077,201969,62.30,134.54,38.50,136,61.90,92.90,133.60,180.20,241.70
39015,Whitewater at Lodge Farm,51.26,-0.95,473356,152176,71.50,46.99,47.40,131,72.60,93.10,125.00,177.80,224.50
39016,Kennet at Theale,51.43,-1.07,464959,170828,43.40,1037.39,54.90,151,44.60,91.30,153.50,205.20,295.70
39017,Ray at Grendon Underwood,51.88,-1.01,468052,221115,65.70,21.15,28.00,89,65.60,72.10,84.70,115.70,186.90
39019,Lambourn at Shaw,51.41,-1.33,447033,168219,75.60,235.43,59.20,163,72.40,118.30,165.70,207.00,260.30
39020,Coln at Bibury,51.75,-1.83,412147,206228,100.60,107.30,76.80,197,99.30,142.80,194.20,260.30,330.20
39021,Cherwell at Enslow Mill,51.86,-1.30,448207,218315,65.00,555.45,46.70,133,64.20,94.70,131.80,174.00,238.20
39022,Loddon at Sheepbridge,51.38,-0.97,472011,165260,42.40,176.77,32.80,94,42.60,58.10,86.40,140.70,228.20
39023,Wye at Hedsor,51.57,-0.71,489597,186679,26.80,134.18,87.90,149,24.80,88.40,153.10,209.00,251.50
39025,Enborne at Brimpton,51.38,-1.19,456783,164772,59.40,142.01,53.60,120,60.60,83.50,113.50,164.10,295.70
39027,Pang at Pangbourne,51.48,-1.09,463450,176580,39.60,175.68,52.70,121,39.60,71.70,118.60,174.00,238.00
39028,Dun at Hungerford,51.41,-1.54,432130,168520,99.00,100.09,46.30,157,99.50,130.80,156.20,185.30,276.60
39029,Tilling Bourne at Shalford,51.22,-0.57,499998,147828,31.70,58.77,93.40,133,32.90,67.50,125.90,208.60,291.40
39034,Evenlode at Cassington Mill,51.79,-1.35,444816,209933,60.20,427.14,46.50,142,60.20,99.60,135.70,195.70,266.50
39035,Churn at Cerney Wick,51.67,-1.89,407574,196292,82.20,126.74,73.60,189,84.00,109.70,194.30,257.40,295.10
39036,Law Brook at Albury,51.21,-0.50,504543,146821,56.70,16.06,85.70,139,58.40,88.30,130.00,207.20,255.20
39037,Kennet at Marlborough,51.42,-1.73,418705,168631,126.50,136.43,51.30,187,125.00,157.70,182.30,222.30,293.70
39042,Leach at Priory Mill Lechlade,51.69,-1.67,422700,199320,71.70,77.61,36.50,143,71.40,92.00,142.70,185.30,252.90
39049,Silk Stream at Colindeep Lane,51.59,-0.24,521705,189500,39.90,31.07,40.10,79,38.80,50.90,73.40,122.30,153.20
39052,The Cut at Binfield,51.43,-0.77,485350,171250,45.60,50.00,24.70,75,44.40,60.00,72.20,91.90,128.20
39054,Mole at Gatwick Airport,51.14,-0.20,526029,139806,56.70,32.33,33.50,88,59.00,66.30,84.40,114.40,145.30
39056,Ravensbourne at Catford Hill,51.44,-0.03,537225,173255,14.50,126.18,48.60,105,16.20,37.90,86.80,189.20,266.20
39061,Letcombe Brook at Letcombe Bassett,51.57,-1.46,437486,185325,105.60,3.99,123.60,176,107.00,128.50,175.00,225.10,236.60
39065,Ewelme Brook at Ewelme,51.62,-1.07,464225,191613,65.90,11.98,78.40,146,76.50,101.60,135.10,213.80,229.10
39069,Mole at Kinnersley Manor,51.20,-0.19,526245,146209,48.00,146.14,29.50,81,48.60,56.90,74.10,120.20,175.20
39072,Thames at Royal Windsor Park,51.49,-0.59,498040,177240,13.50,7124.94,41.00,115,17.50,59.90,104.70,187.40,330.20
39078,Wey (North) at Farnham,51.21,-0.80,483673,146263,63.50,192.61,55.30,153,64.60,105.20,159.70,199.10,245.60
39081,Ock at Abingdon,51.67,-1.31,448148,196667,51.40,233.60,23.80,88,49.90,61.00,80.30,124.30,260.00
39087,Ray at Water Eaton,51.64,-1.83,412100,193520,75.90,81.55,27.40,109,78.00,84.00,103.40,137.30,212.10
39088,Chess at Rickmansworth,51.64,-0.46,506573,194809,47.10,96.92,59.10,153,47.70,97.60,157.80,201.20,266.20
39095,Quaggy at Manor House Gardens,51.46,0.01,539485,174878,13.30,33.42,36.70,61,13.80,29.00,60.40,95.40,133.90
39099,Ampney Brook at Ampney St Peter,51.71,-1.89,407705,201331,95.30,39.22,38.40,158,91.70,117.60,156.00,205.50,250.90
39101,Aldbourne at Ramsbury,51.44,-1.59,428901,171719,106.40,53.09,88.50,188,108.20,144.60,187.60,234.50,276.80
39105,Thame at Wheatley,51.74,-1.12,461190,205030,50.00,531.53,34.00,98,54.90,68.80,88.00,139.10,268.30
39108,Churn at Perrott's Brook,51.75,-1.97,402150,205710,120.10,58.30,96.50,216,120.60,165.60,218.60,267.50,295.10
39114,Pang at Frilsham,51.45,-1.23,453762,173025,74.00,90.05,55.50,143,73.60,106.60,140.00,187.10,238.00
39120,Caker Stream at Alton,51.14,-0.96,472873,138390,99.60,83.95,52.40,169,100.00,123.40,172.90,209.40,245.60
39125,Ver at Redbourn,51.79,-0.39,510916,211904,91.90,62.57,44.40,159,92.10,121.50,159.80,195.90,241.70
39127,Misbourne at Little Missenden,51.68,-0.65,493421,198458,101.00,47.26,65.20,173,97.50,133.20,172.40,217.40,252.40
39141,Wey at Guildford,51.24,-0.58,499370,149500,30.40,690.78,62.20,114,30.40,57.30,105.40,184.20,291.40
39142,Windrush at Bourton on the Water,51.89,-1.77,416073,220936,132.10,65.28,83.10,226,131.40,176.70,230.00,273.70,304.00
39143,Dikler at Bourton on the Water,51.87,-1.74,417996,219619,123.90,89.26,64.10,210,126.20,144.80,211.80,266.00,317.20
39144,Sor at Bodicote,52.03,-1.33,446282,236901,90.50,89.20,63.30,153,89.80,117.60,151.80,193.50,225.00
40003,Medway at Teston / East Farleigh,51.25,0.45,570865,153033,7.00,1261.31,53.60,73,6.80,23.40,67.90,130.40,267.70
40004,Rother at Udiam,50.99,0.52,577250,124410,2.10,204.64,92.70,81,7.20,31.90,77.70,136.10,195.80
40005,Beult at Stilebridge,51.20,0.52,575870,147770,11.50,278.05,27.40,45,13.10,21.40,39.00,81.20,160.60
40006,Bourne at Hadlow,51.22,0.34,563168,149612,24.00,49.48,64.70,98,23.00,44.50,96.60,156.30,234.30
40007,Medway at Chafford / Colliersland Bridge,51.14,0.17,551780,140590,30.80,252.07,82.50,109,33.00,62.10,104.20,162.20,241.80
40009,Teise at Stonebridge,51.13,0.45,571789,139960,24.50,134.50,78.40,93,25.70,53.40,91.70,133.50,202.40
40010,Eden at Penshurst / Vexour Bridge,51.17,0.17,552012,143688,27.80,224.41,47.40,82,26.70,47.50,72.00,130.70,267.70
40011,Great Stour at Horton,51.26,1.03,611549,155356,12.50,341.26,50.90,84,12.50,40.10,75.50,147.00,195.50
40012,Darent at Hawley,51.42,0.23,555222,171842,11.20,187.31,71.20,117,9.50,57.00,112.40,185.70,250.10
40013,Darent at Otford,51.30,0.19,552497,158426,60.00,98.19,70.70,136,60.00,82.90,133.50,194.90,250.10
40016,Cray at Crayford,51.45,0.17,551059,174556,6.30,123.50,45.60,98,7.00,35.20,80.10,181.90,249.90
40017,Dudwell at Burwash,50.99,0.39,567860,124040,27.60,26.29,104.80,113,28.80,61.60,115.10,160.00,192.40
40018,Darent at Lullingstone,51.36,0.20,553029,164280,44.10,122.24,73.30,129,42.30,74.90,127.50,190.50,250.10
4001,Conon at Moy Bridge,57.56,-4.54,248129,854675,10.00,962.45,198.80,377,11.50,150.40,354.40,635.10,1103.40
40020,Eridge Stream at Hendal Bridge,51.11,0.17,552187,136570,41.50,52.74,89.30,121,40.40,72.10,121.10,165.20,241.70
40021,Hexden Channel at Hopemill Bridge Sandhurst,51.03,0.58,581330,129020,5.20,32.09,76.00,64,8.90,26.40,65.90,103.00,140.80
40022,Great Stour at Chart Leacon,51.15,0.85,599229,142280,39.50,66.96,40.90,91,39.50,54.20,84.80,137.50,195.50
40033,Dour at Crabble Mill,51.14,1.29,630043,143019,16.30,44.93,91.90,120,17.90,68.40,130.10,154.00,184.90
4003,Alness at Alness,57.70,-4.26,265467,869598,11.90,202.38,147.70,396,13.90,192.50,410.50,579.70,835.00
4005,Meig at Glenmeanie,57.53,-4.86,228649,852780,120.70,123.67,289.00,463,118.70,225.50,462.70,710.20,1052.70
4006,Bran at Dosmucheran,57.60,-5.01,220463,860186,118.60,117.53,164.60,351,119.40,171.60,330.00,563.00,913.50
41001,Nunningham Stream at Tilley Bridge,50.89,0.36,566193,112875,3.80,17.11,67.50,49,8.80,19.80,46.10,83.60,133.40
41003,Cuckmere at Sherman Bridge,50.83,0.18,553288,105159,3.70,130.33,50.20,52,4.70,17.80,42.40,103.90,212.80
41004,Ouse at Barcombe Mills,50.91,0.04,543421,114808,5.20,400.61,64.30,65,2.60,24.10,56.40,120.70,247.40
41005,Ouse at Gold Bridge,50.97,0.03,542907,121374,11.30,182.66,73.50,77,12.10,34.60,70.40,131.00,201.80
41006,Uck at Isfield,50.95,0.08,545871,119006,11.30,89.16,72.00,73,13.30,34.00,67.60,122.30,235.20
41009,Rother at Hardham,50.95,-0.53,503425,117946,3.90,360.76,72.80,76,2.50,30.00,67.20,139.00,279.00
41011,Rother at Iping Mill,51.00,-0.79,485220,122904,26.80,156.94,75.10,91,28.00,49.20,81.30,145.80,269.10
41012,Adur E Branch at Sakeham,50.96,-0.27,521884,118985,3.10,93.62,48.30,49,3.10,18.00,42.80,91.10,232.50
41013,Huggletts Stream at Henley Bridge,50.90,0.38,567173,113769,6.40,14.18,86.20,60,9.10,24.70,57.50,101.70,133.20
41014,Arun at Pallingham,51.00,-0.51,504692,122929,3.70,396.85,49.50,63,4.10,23.60,55.10,107.50,291.40
41016,Cuckmere at Cowbeech,50.91,0.29,561135,115076,29.80,19.09,78.50,90,31.40,48.90,84.00,143.70,184.70
41019,Arun at Alfoldean,51.09,-0.41,511722,133150,21.40,151.63,53.00,78,22.50,40.80,73.50,121.80,291.40
41020,Bevern Stream at Clappers Bridge,50.93,0.02,542351,116107,9.60,35.48,46.70,51,9.50,24.00,45.10,79.10,247.40
41022,Lod at Halfway Bridge,50.99,-0.67,493124,122259,14.30,52.44,78.60,82,16.40,40.80,70.40,152.00,279.00
41023,Lavant at Graylingwell,50.85,-0.76,487062,106450,20.70,86.20,102.00,122,19.00,53.90,124.60,191.90,253.60
41025,Loxwood Stream at Drungewick,51.07,-0.49,505995,130912,13.10,93.01,56.40,69,15.60,31.40,60.10,119.20,275.40
41027,Rother at Princes Marsh,51.04,-0.90,477230,127032,56.40,36.22,78.30,109,58.90,70.90,98.70,157.40,246.80
41028,Chess Stream at Chess Bridge,50.94,-0.27,521667,117269,4.60,25.01,46.90,43,6.20,14.10,36.90,70.60,205.30
41029,Bull at Lealands,50.90,0.24,557642,113034,18.20,40.35,56.20,63,18.70,33.60,57.40,103.60,170.80
42001,Wallington at North Fareham,50.86,-1.17,458746,107460,3.70,111.67,46.90,69,4.50,29.70,57.20,125.50,235.20
42003,Lymington at Brockenhurst,50.82,-1.55,431780,101920,6.10,99.87,37.60,48,8.50,18.40,41.80,89.60,117.70
42004,Test at Broadlands,50.97,-1.50,435410,118860,10.10,1034.70,50.10,108,7.30,55.10,100.40,170.30,296.40
42006,Meon at Mislingford,50.92,-1.16,458927,114112,29.30,75.85,84.00,113,29.50,64.00,111.20,170.60,258.40
42008,Cheriton Stream at Sewards Bridge,51.09,-1.18,457362,132235,55.80,74.34,54.20,121,56.90,83.60,115.50,174.00,220.50
42010,Itchen at Highbridge & Allbrook Total,50.99,-1.34,446129,121122,16.80,339.92,54.00,111,13.50,57.90,106.00,169.30,220.50
42011,Hamble at Frogmill,50.93,-1.26,452280,114926,9.40,55.25,52.20,77,9.80,34.60,73.10,128.00,195.20
42016,Itchen at Easton,51.09,-1.27,451110,132500,41.70,234.17,53.00,123,42.70,79.80,119.80,175.80,220.50
42017,Hermitage Stream at Havant,50.86,-0.99,471065,106790,8.00,17.33,32.70,38,4.80,14.00,39.50,60.60,82.90
42024,Test at Chilbolton Total,51.15,-1.45,438500,139390,39.40,478.43,55.10,128,39.80,75.20,121.30,193.90,296.40
42026,Wallop Brook at Bossington,51.08,-1.52,433400,131330,32.30,61.13,43.50,84,29.60,56.90,81.80,112.10,172.40
42027,Dever at Bransbury,51.18,-1.40,442150,142240,50.00,122.36,36.90,95,49.20,68.40,92.30,128.10,181.80
43005,Avon at Amesbury,51.17,-1.79,415109,141387,67.10,326.47,50.50,135,66.40,100.00,128.90,179.30,293.70
43006,Nadder at Wilton,51.08,-1.86,409725,130794,51.10,215.63,78.50,139,52.30,92.30,136.00,189.40,276.30
43007,Stour at Throop,50.76,-1.84,411233,96046,4.40,1062.08,54.10,92,5.20,40.60,83.50,156.10,276.30
43008,Wylye at South Newton,51.11,-1.88,408628,134249,55.60,448.17,70.10,144,54.60,97.70,140.60,196.70,283.60
43009,Stour at Hammoon,50.93,-2.26,382005,114692,40.90,518.75,49.90,100,41.10,59.10,91.70,154.20,273.10
43014,East Avon at Upavon,51.30,-1.81,413351,155948,92.10,85.83,54.70,145,92.90,109.90,139.80,187.50,293.00
43017,West Avon at Upavon,51.30,-1.81,413353,155938,92.00,84.63,43.10,137,92.80,106.90,124.90,192.10,293.70
43018,Allen at Walford Mill,50.81,-1.99,400825,100698,18.80,170.88,51.70,89,18.50,37.60,78.20,164.00,276.30
43021,Avon at Knapp Mill,50.75,-1.78,415607,94304,0.90,1712.31,61.10,120,3.10,55.30,119.90,181.20,293.70
44001,Frome at East Stoke Total,50.68,-2.19,386727,86839,9.20,414.59,80.10,115,8.10,39.30,114.50,196.50,264.60
44002,Piddle at Baggs Mill,50.69,-2.12,391322,87609,2.10,183.79,79.50,105,5.00,36.20,102.50,178.90,273.10
44006,Sydling Water at Sydling St Nicholas,50.80,-2.52,363239,99649,109.70,12.05,128.90,188,109.30,131.80,192.40,243.10,264.40
44009,Wey at Broadwey,50.65,-2.47,366644,83888,17.80,8.00,117.50,101,17.70,42.80,104.10,153.30,187.30
44011,Asker at East Bridge Bridport,50.73,-2.75,347014,92756,9.00,48.52,138.40,100,8.20,41.70,94.90,173.60,251.60
45001,Exe at Thorverton,50.80,-3.51,293602,101602,25.90,608.16,137.90,245,27.60,117.20,235.70,382.80,516.80
45003,Culm at Woodmill,50.84,-3.39,302066,105773,44.00,228.91,70.10,153,44.90,70.70,142.40,249.20,294.70
45004,Axe at Whitford,50.75,-3.05,326208,95324,7.30,288.56,90.20,138,7.90,65.40,134.10,216.60,591.80
45005,Otter at Dotton,50.69,-3.29,308665,88435,14.50,202.83,85.00,144,16.50,64.90,131.80,248.00,302.20
45009,Exe at Pixton,51.02,-3.52,293493,125960,128.00,147.82,154.20,309,117.10,228.00,310.00,398.40,516.80
45012,Creedy at Cowley,50.76,-3.56,290093,96723,14.20,263.63,111.30,124,16.70,56.50,123.20,194.90,293.50
46003,Dart at Austins Bridge,50.48,-3.76,275112,65841,22.40,249.99,121.10,327,24.40,125.10,348.10,479.40,601.60
46005,East Dart at Bellever,50.58,-3.90,265712,77570,309.00,22.27,95.00,459,309.10,358.30,462.30,552.30,601.60
46008,Avon at Loddiswell,50.31,-3.80,271879,47584,5.90,102.22,124.00,202,6.00,81.80,148.80,427.40,514.20
46014,Teign at Chudleigh,50.60,-3.62,285722,78513,15.50,232.28,136.70,227,15.50,94.20,207.30,413.90,601.50
47001,Tamar at Gunnislake,50.53,-4.22,242627,72524,8.20,920.22,86.40,155,9.10,91.50,144.90,231.40,580.30
47004,Lynher at Pillaton Mill,50.44,-4.30,236849,62571,8.50,135.29,107.10,175,9.10,79.00,160.10,292.60,383.00
47005,Ottery at Werrington Park,50.66,-4.35,233721,86613,54.70,121.66,71.20,148,55.80,99.80,139.40,216.80,293.50
47008,Thrushel at Tinhay,50.65,-4.27,239783,85516,55.50,112.72,89.50,162,56.30,103.90,160.10,226.60,340.50
47009,Tiddy at Tideford,50.41,-4.33,234468,59634,4.20,37.40,121.20,109,5.70,52.00,108.30,168.30,283.50
47011,Plym at Carn Wood,50.43,-4.08,252141,61175,15.50,79.50,104.00,277,16.10,134.90,279.40,428.30,506.70
47014,Walkham at Horrabridge,50.51,-4.10,251312,69888,82.30,44.24,109.00,318,81.20,158.70,326.10,489.90,551.00
47018,Thrushel at Hayne Bridge,50.66,-4.24,241625,86663,67.00,57.77,93.80,169,68.00,108.30,164.50,237.20,340.50
48003,Fal at Tregony,50.27,-4.92,192107,44747,6.90,89.03,78.80,126,9.00,55.40,125.20,207.70,301.00
48004,Warleggan at Trengoffe,50.48,-4.60,215951,67373,70.30,25.26,93.80,219,70.60,148.80,232.70,262.80,307.60
48005,Kenwyn at Truro,50.26,-5.06,181975,45030,7.20,19.02,90.40,83,8.30,46.80,85.60,117.20,146.50
48011,Fowey at Restormel,50.43,-4.68,209796,62454,9.20,167.20,113.30,196,8.90,96.30,207.20,283.90,404.30
49001,Camel at Denby,50.48,-4.80,201748,68159,4.60,209.94,87.90,174,4.50,72.90,161.50,281.80,411.20
49002,Hayle at St Erth,50.16,-5.43,154881,34171,7.00,48.58,61.20,80,6.60,40.40,77.20,127.70,206.60
49004,Gannel at Gwills,50.39,-5.06,182866,59268,8.80,40.83,71.50,78,8.50,43.30,78.20,113.40,202.90
50001,Taw at Umberleigh,51.00,-3.99,260795,123662,14.10,832.97,104.40,182,11.20,101.70,168.40,279.10,811.40
50002,Torridge at Torrington,50.95,-4.14,249955,118564,13.90,664.25,81.10,160,11.20,86.90,146.20,219.10,619.50
50006,Mole at Woodleigh,50.97,-3.91,266011,121039,47.90,327.00,124.90,210,48.70,112.60,200.60,330.20,490.50
50007,Taw at Taw Bridge,50.85,-3.89,267293,106820,84.50,72.23,95.40,234,85.30,127.40,180.40,453.20,603.30
50008,Lew at Gribbleford Bridge,50.79,-4.09,252770,101392,81.30,71.22,81.50,175,80.90,122.10,172.40,236.90,286.40
50011,Okement at Jacobstowe,50.80,-4.00,259185,101918,90.00,80.17,130.00,316,84.10,139.30,290.90,527.00,619.50
5003,Glass at Kerrow Wood,57.35,-4.74,235449,832076,52.90,487.70,273.60,498,52.80,242.40,478.70,811.20,1182.50
51001,Doniford Stream at Swill Bridge,51.18,-3.31,308848,142865,9.30,74.23,129.90,145,11.10,48.50,126.80,283.30,391.60
52004,Isle at Ashford Mill,50.96,-2.91,336054,118785,14.60,87.41,64.50,93,16.00,29.90,82.70,179.10,277.80
52005,Tone at Bishops Hull,51.02,-3.13,320576,125023,16.60,203.66,97.40,144,17.70,46.90,120.30,280.60,573.40
52006,Yeo at Pen Mill,50.94,-2.61,357328,116182,23.90,216.40,63.50,95,26.50,50.40,89.00,149.80,264.60
52007,Parrett at Chiselborough,50.93,-2.77,346070,114438,20.70,74.26,68.50,73,22.70,38.30,68.40,117.40,230.00
52009,Sheppey at Fenny Castle,51.19,-2.72,349838,143850,5.80,58.16,78.70,142,6.90,27.30,155.80,239.70,304.60
52010,Brue at Lovington,51.08,-2.59,358994,131756,19.80,137.81,71.30,104,23.10,40.20,105.60,169.10,262.70
52011,Cary at Somerton,51.06,-2.72,349814,129055,8.80,84.64,30.20,38,9.10,18.20,32.40,66.80,152.20
52015,Land Yeo at Wraxall Bridge,51.44,-2.75,348301,171565,11.40,23.33,73.30,94,10.20,27.10,92.60,161.10,241.00
52016,Currypool Stream at Currypool Farm,51.14,-3.11,322149,138193,49.00,15.73,133.60,181,50.40,74.20,172.40,307.00,382.60
53005,Midford Brook at Midford,51.35,-2.34,376315,161132,27.40,147.27,79.50,125,31.20,81.60,126.80,165.90,222.10
53006,Frome (Bristol) at Frenchay,51.49,-2.52,363753,177202,20.00,151.63,28.60,73,22.70,50.30,66.20,106.40,194.30
53007,Frome (Somerset) at Tellisford,51.31,-2.28,380519,156427,35.10,263.76,60.60,143,36.30,80.20,131.90,227.20,304.60
53008,Avon at Great Somerford,51.55,-2.05,396483,183310,57.60,305.17,28.70,119,58.30,82.40,114.80,165.10,220.70
53009,Wellow Brook at Wellow,51.32,-2.37,374033,157995,43.70,73.64,68.40,135,43.30,92.50,136.00,179.90,222.10
53013,Marden at Stanley,51.46,-2.07,395536,172969,47.30,99.46,50.60,110,49.70,77.90,101.80,165.10,262.60
53017,Boyd at Bitton,51.43,-2.46,368142,169866,15.50,47.58,62.70,111,15.50,70.60,105.90,181.60,236.00
53018,Avon at Bathford,51.40,-2.31,378533,167023,18.00,1569.35,48.90,109,20.30,53.30,104.00,172.10,304.60
53022,Avon at Bath ultrasonic,51.38,-2.38,373837,165101,20.60,1621.88,51.80,109,16.10,53.10,104.60,174.10,304.60
53023,Sherston Avon at Fosseway,51.58,-2.16,389139,187031,77.10,77.73,28.80,138,78.00,110.70,132.20,174.40,203.70
53028,By Brook at Middlehill,51.42,-2.27,381408,168806,28.10,99.48,75.20,137,28.90,86.90,137.90,182.40,220.60
54001,Severn at Bewdley,52.38,-2.32,378230,276160,17.00,4329.90,88.60,175,18.80,68.80,127.40,359.70,826.20
54002,Avon at Evesham,52.09,-1.94,404007,243741,19.50,2207.95,37.80,99,21.40,51.90,95.70,148.10,317.20
54003,Vyrnwy at Vyrnwy Reservoir,52.76,-3.46,301882,319027,226.30,74.03,174.80,452,248.00,288.90,476.00,559.10,666.50
54004,Sowe at Stoneleigh,52.35,-1.51,433155,273096,55.00,263.52,27.90,104,54.50,78.80,100.50,131.80,183.10
54005,Severn at Montford,52.72,-2.87,341190,314460,52.00,2026.77,133.60,249,51.80,86.60,231.70,429.10,826.20
54007,Arrow at Broom,52.18,-1.88,408638,253580,29.80,320.83,45.20,102,29.50,59.50,100.20,149.20,293.60
54008,Teme at Tenbury,52.31,-2.59,359770,268520,48.00,1124.62,116.10,231,48.40,110.00,214.40,383.70,544.50
54011,Salwarpe at Harford Hill,52.26,-2.19,386860,261930,19.00,186.52,42.00,83,21.80,40.80,68.50,147.00,294.20
54012,Tern at Walcot,52.71,-2.61,359180,312280,44.60,851.65,28.20,93,45.50,62.00,88.70,128.70,392.40
54015,Bow Brook at Besford Bridge,52.11,-2.11,392693,246252,13.40,158.31,33.30,62,16.00,34.00,53.10,110.60,164.10
54016,Roden at Rodington,52.72,-2.61,358910,314170,48.00,261.94,22.20,89,49.30,67.90,89.40,108.90,207.00
54017,Leadon at Wedderburn Bridge,51.91,-2.33,377664,223340,9.10,287.41,60.40,74,9.50,29.80,65.80,136.10,322.60
54018,Rea Brook at Hookagate,52.68,-2.79,346570,309230,64.60,172.85,89.50,183,66.00,97.90,145.80,327.60,515.20
54019,Avon at Stareton,52.34,-1.51,433287,271535,54.70,346.06,30.30,119,55.30,82.60,118.30,156.40,214.10
54020,Perry at Yeaton,52.77,-2.84,343440,319240,61.30,188.08,29.50,102,60.50,79.40,93.80,123.50,364.40
54022,Severn at Plynlimon flume,52.47,-3.69,285300,287200,331.00,8.75,180.30,501,321.40,377.70,495.70,621.30,736.40
54024,Worfe at Burcote,52.56,-2.38,374600,295340,33.20,255.22,39.90,96,31.30,68.90,90.20,135.70,207.30
54025,Dulas at Rhos-y-pentref,52.43,-3.55,294985,282492,178.50,53.33,161.30,342,178.50,267.00,337.00,426.90,571.10
54027,Frome at Ebley Mill,51.74,-2.25,383014,204627,30.90,196.71,124.40,179,32.60,99.90,183.00,251.70,296.20
54028,Vyrnwy at Llanymynech,52.77,-3.11,325294,319641,62.00,779.14,161.10,291,65.00,130.00,272.00,488.40,826.20
54029,Teme at Knightsford Bridge,52.20,-2.39,373490,255730,21.00,1483.65,110.10,212,24.30,95.30,191.50,369.20,544.50
54032,Severn at Saxons Lode,52.05,-2.20,386349,239041,7.50,6864.88,88.30,170,9.50,61.50,130.80,345.60,826.20
54034,Dowles Brook at Oak Cottage,52.39,-2.34,377100,276420,24.20,44.16,91.90,127,22.70,82.60,128.90,169.60,227.70
54036,Isbourne at Hinton on the Green,52.06,-1.97,402368,240680,25.50,92.83,77.70,127,28.80,48.20,98.90,256.30,330.20
54038,Tanat at Llanyblodwel,52.79,-3.11,325230,322440,77.00,241.13,202.40,322,76.00,145.60,296.30,537.60,826.20
54044,Tern at Ternhill,52.88,-2.55,362850,331480,62.20,95.72,44.10,125,61.70,87.10,121.00,166.90,234.60
54048,Dene at Wellesbourne,52.20,-1.60,427271,255587,41.30,96.55,39.20,98,40.80,71.30,96.60,125.40,219.20
54049,Leam at Princes Drive Weir,52.29,-1.55,430858,265437,46.30,367.11,33.10,99,47.50,68.30,95.40,136.40,223.20
54052,Bailey Brook at Ternhill,52.88,-2.55,362850,331490,62.20,38.50,22.30,91,61.70,79.30,90.20,104.00,131.00
54057,Severn at Haw Bridge,51.95,-2.23,384491,227878,6.00,9885.46,73.20,145,7.40,49.00,110.00,303.50,826.20
54060,Potford Brook at Sandyford Bridge,52.80,-2.54,363480,322190,55.70,22.07,24.70,77,57.90,63.30,72.90,89.80,195.70
54063,Stour (Worcs) at Prestwood Hospital,52.47,-2.20,386700,286150,51.10,88.87,64.40,137,52.80,86.00,134.00,197.30,300.70
54080,Severn at Dolwen,52.46,-3.49,298949,285181,145.80,174.42,166.70,349,147.20,237.60,343.20,462.30,736.40
54095,Severn at Buildwas,52.64,-2.53,364550,304400,36.00,3722.68,92.30,186,34.10,69.20,137.90,376.90,826.20
54096,Hadley Brook at Wards Bridge,52.27,-2.19,387020,263140,21.80,54.03,35.50,68,25.50,38.90,58.60,118.00,183.10
55002,Wye at Belmont,52.05,-2.75,348500,238799,46.30,1894.26,134.40,297,51.00,114.00,296.00,469.50,750.00
55007,Wye at Erwood,52.09,-3.35,307580,244490,106.40,1283.40,152.40,343,109.40,204.20,340.00,487.70,750.00
55008,Wye at Cefn Brwyn,52.44,-3.72,282900,283800,341.00,10.50,192.40,495,344.00,395.90,480.80,640.80,736.60
55013,Arrow at Titley Mill,52.22,-2.98,332821,258500,129.00,125.90,130.10,303,129.80,190.30,294.10,427.30,540.20
55014,Lugg at Byton,52.28,-2.93,336432,264689,124.10,202.54,158.50,299,124.30,171.10,287.40,446.30,659.70
55016,Ithon at Disserth,52.21,-3.43,302455,257784,149.50,358.94,132.20,324,150.30,218.90,319.00,442.70,659.90
55018,Frome at Yarkhill,52.08,-2.56,361482,242705,55.40,143.82,68.00,138,57.20,77.00,142.30,199.20,252.40
55021,Lugg at Butts Bridge,52.23,-2.73,350208,258942,67.10,365.88,125.60,232,68.90,91.70,208.00,390.40,659.70
55023,Wye at Redbrook,51.80,-2.69,352769,211077,9.20,4016.26,116.10,227,13.60,73.40,199.00,430.80,750.00
55025,Llynfi at Three Cocks,52.03,-3.22,316611,237596,87.90,131.62,104.60,239,86.60,147.50,223.60,346.10,748.70
55026,Wye at Ddol Farm,52.30,-3.50,297580,267584,192.80,172.12,180.20,387,196.30,277.50,385.70,497.30,750.00
55029,Monnow at Grosmont,51.92,-2.85,341609,224831,58.00,355.01,129.90,228,57.20,94.60,184.00,443.80,715.30
55032,Elan at Caban Dam,52.27,-3.57,292817,264605,209.70,183.78,145.90,449,212.10,355.90,459.60,527.50,641.20
56001,Usk at Chainbridge,51.75,-2.95,334606,205591,22.60,913.25,159.70,312,23.80,121.60,313.50,497.50,884.70
56002,Ebbw at Rhiwderin,51.59,-3.07,325868,188879,30.60,211.82,182.30,317,32.40,156.50,324.50,473.50,615.70
56007,Senni at Pont-Hen-Hafod,51.92,-3.56,292826,225467,219.60,19.29,198.40,388,221.10,253.20,369.50,565.80,651.70
56012,Grwyne at Millbrook,51.85,-3.10,324054,217590,82.70,82.80,240.80,431,85.00,208.50,430.00,655.80,810.20
56013,Yscir at Pont-Ar-Yscir,51.96,-3.45,300348,230405,161.20,63.55,137.90,349,156.90,254.30,361.90,429.40,472.60
57004,Cynon at Abercynon,51.65,-3.33,307940,195652,81.20,103.30,142.30,270,81.60,143.80,266.70,399.70,515.60
57005,Taff at Pontypridd,51.60,-3.33,307924,189715,45.10,451.69,163.60,320,47.30,160.00,317.50,487.90,884.70
57006,Rhondda at Trehafod,51.61,-3.37,305283,190946,68.30,102.69,210.30,328,68.50,168.70,325.40,490.40,599.40
57007,Taff at Fiddlers Elbow,51.65,-3.32,308920,195153,82.50,193.84,153.10,367,82.40,194.50,362.60,541.70,884.70
57008,Rhymney at Llanedeyrn,51.53,-3.12,322422,182122,11.80,185.60,125.70,224,13.10,70.40,214.10,394.80,615.70
57009,Ely at St Fagans,51.49,-3.27,312103,177055,11.00,146.44,81.90,104,9.20,35.70,86.00,203.40,410.60
58001,Ogmore at Bridgend,51.50,-3.58,290379,179437,13.80,157.79,171.30,211,14.90,69.50,194.60,381.60,567.30
58002,Neath at Resolven,51.70,-3.72,281529,201698,15.10,190.70,146.90,318,15.20,148.30,314.80,497.90,734.20
58006,Mellte at Pontneddfechan,51.76,-3.57,291491,208183,86.40,65.32,131.70,401,89.30,268.80,396.00,555.90,734.20
58008,Dulais at Cilfrew,51.69,-3.77,277850,200761,42.10,43.45,142.40,228,40.30,118.30,227.90,349.40,481.00
58009,Ewenny at Keepers Lodge,51.49,-3.56,291991,178217,8.30,63.27,75.50,85,8.80,24.90,69.70,192.50,301.20
58010,Hepste at Esgair Carnau,51.81,-3.50,296954,213333,330.00,10.94,78.40,464,326.30,373.70,442.00,600.00,727.20
58012,Afan at Marcroft Weir,51.60,-3.78,277124,190976,17.80,89.70,210.20,306,18.10,143.40,298.60,487.70,600.10
59001,Tawe at Ynystanglws,51.68,-3.90,268553,199798,9.30,227.45,143.10,287,11.90,107.10,260.00,509.60,801.00
60002,Cothi at Felin Mynachdy,51.88,-4.17,250870,222490,16.10,298.74,173.40,231,19.50,69.90,156.70,275.90,304.80
60003,Taf at Clog-y-Fran,51.82,-4.56,223831,216034,9.30,216.44,102.70,125,8.80,41.70,122.40,210.60,393.00
60005,Bran at Llandovery,51.99,-3.79,277129,234341,64.60,63.70,185.10,252,67.10,113.70,234.90,437.30,516.30
60006,Gwili at Glangwili,51.87,-4.28,243036,221947,7.50,131.14,150.00,188,9.50,101.00,187.50,277.60,354.40
60010,Tywi at Capel Dewi,51.86,-4.20,248509,220576,7.80,1092.41,156.70,234,8.20,72.70,220.30,415.20,832.70
60012,Twrch at Ddol Las,52.08,-3.97,265023,243991,151.20,19.50,161.20,305,152.40,202.40,309.40,419.30,482.30
6007,Ness at Ness-side,57.45,-4.26,264507,842726,6.90,1830.73,178.60,375,7.00,124.80,348.80,682.50,1109.60
6008,Enrick at Mill of Tore,57.33,-4.58,245044,829976,109.40,107.02,118.30,346,111.10,187.40,335.60,519.50,674.80
61001,Western Cleddau at Prendergast Mill,51.82,-4.97,195402,217700,3.50,197.82,67.90,108,4.80,48.30,98.90,186.50,372.60
61002,Eastern Cleddau at Canaston Bridge,51.80,-4.80,207226,215292,4.90,181.87,96.00,152,5.10,50.10,136.20,282.70,535.50
62001,Teifi at Glanteifi,52.05,-4.56,224419,241655,5.20,897.59,109.80,209,3.60,107.90,196.00,335.10,591.90
63001,Ystwyth at Pont Llolwyn,52.38,-4.07,259024,277289,12.00,170.10,159.80,265,14.60,88.90,250.00,492.30,611.60
63004,Ystwyth at Cwm Ystwyth,52.35,-3.78,279075,273700,198.50,31.85,185.50,455,209.50,337.10,474.90,536.80,611.60
64001,Dyfi at Dyfi Bridge,52.60,-3.85,274489,301958,5.90,464.61,269.80,281,6.60,106.80,263.00,480.00,903.40
64002,Dysynni at Pont-y-Garth,52.64,-4.02,263117,306604,2.30,74.93,323.10,314,5.80,70.90,318.70,551.50,890.30
64006,Leri at Dolybont,52.47,-4.01,263462,288050,14.60,47.02,204.20,262,18.50,112.60,263.20,403.90,520.40
65001,Glaslyn at Beddgelert,53.01,-4.10,259164,347783,32.90,66.95,309.40,338,36.60,106.30,327.70,581.50,1078.40
65004,Gwyrfai at Bontnewydd,53.11,-4.27,248386,359889,30.90,46.11,214.10,295,34.50,128.90,254.80,543.50,1067.30
65005,Erch at Pencaenewydd,52.94,-4.38,240013,340372,56.10,19.42,95.90,175,56.80,104.90,143.90,317.70,551.40
65006,Seiont at Peblig Mill,53.14,-4.25,249450,362269,18.60,79.89,261.80,321,19.40,104.50,281.50,644.70,1063.10
65007,Dwyfor at Garndolbenmaen,52.96,-4.24,249866,342916,85.50,51.60,194.90,268,84.60,119.60,230.00,480.00,784.70
65008,Peris at Nant Peris,53.10,-4.08,260837,357960,143.00,10.32,487.90,527,133.30,248.30,525.50,803.10,1060.70
66001,Clwyd at Pont-y-Cambwll,53.23,-3.39,306988,370961,15.30,404.56,117.60,207,17.60,55.70,202.10,358.60,553.90
66004,Wheeler at Bodfari,53.23,-3.34,310501,371336,54.60,62.91,108.70,207,55.10,144.70,199.70,274.70,437.10
66006,Elwy at Pont-y-Gwyddel,53.23,-3.57,295240,371773,87.90,191.35,129.00,284,88.60,177.30,276.70,402.40,515.50
66011,Conwy at Cwmlanerch,53.11,-3.79,280129,358077,11.60,340.11,169.70,342,9.80,197.90,329.70,492.60,1050.60
67001,Dee at Bala,52.91,-3.58,294087,335721,159.20,262.83,153.60,376,157.50,218.10,377.00,530.20,878.20
67005,Ceiriog at Brynkinalt Weir,52.93,-3.05,329503,337318,64.40,111.72,186.50,386,64.20,206.10,392.70,536.80,790.00
67006,Alwen at Druid,52.98,-3.43,304077,343600,146.20,185.48,120.40,356,145.90,257.80,365.70,444.50,627.60
67008,Alyn at Pont-y-Capel,53.08,-2.99,333526,354047,37.30,225.65,108.20,233,37.60,103.20,232.40,354.30,562.90
67010,Gelyn at Cynefail,52.96,-3.72,284245,342049,306.20,12.76,127.80,424,302.10,342.00,413.40,526.00,684.90
67015,Dee at Manley Hall,52.97,-2.97,334822,341459,25.40,1008.74,154.80,339,28.10,157.50,347.00,499.30,878.20
67018,Dee at New Inn,52.86,-3.67,287353,330798,163.50,53.38,150.50,387,164.20,220.20,397.80,530.60,840.80
67025,Clywedog at Bowling Bank,53.03,-2.90,339580,348249,14.00,103.61,62.00,164,14.40,48.00,111.70,386.40,554.20
67033,Dee at Chester Suspension Bridge,53.19,-2.88,341020,365973,10.00,1800.75,112.80,242,2.60,32.30,241.90,456.90,878.20
68001,Weaver at Ashbrook,53.17,-2.49,367171,363507,16.30,622.68,29.60,79,17.20,45.30,75.00,121.00,231.80
68003,Dane at Rudheath,53.24,-2.50,366758,371800,13.20,412.46,59.90,144,11.60,43.20,94.70,350.90,556.70
68004,Wistaston Brook at Marshfield Bridge,53.09,-2.49,367410,355200,30.10,90.09,31.80,82,30.60,50.80,75.50,128.10,231.80
68005,Weaver at Audlem,52.98,-2.52,365254,343040,44.70,201.38,27.40,89,44.70,67.80,86.20,111.20,221.30
68020,Gowy at Bridge Trafford,53.23,-2.83,344830,371113,4.10,148.66,33.80,52,6.00,18.00,41.50,98.10,218.00
69002,Irwell at Adelphi Weir,53.49,-2.27,382419,398759,24.10,552.17,90.70,212,26.40,91.00,201.10,358.90,475.60
69007,Mersey at Ashton Weir,53.44,-2.34,377239,393563,14.90,667.27,112.40,242,18.40,56.40,229.30,468.90,635.50
69012,Bollin at Wilmslow,53.33,-2.23,384970,381491,59.10,68.38,81.70,183,60.30,89.20,159.00,315.90,474.90
69015,Etherow at Compstall,53.41,-2.06,396241,390768,73.50,149.40,154.00,342,75.00,160.50,343.10,522.70,631.20
69017,Goyt at Marple Bridge,53.40,-2.06,396370,389790,74.40,184.23,151.30,309,79.30,182.60,298.70,453.70,635.50
69023,Roch at Blackford Bridge,53.57,-2.29,380690,407740,62.90,190.45,93.20,218,60.90,107.20,196.50,370.20,475.60
69027,Tame at Portwood,53.42,-2.14,390699,391870,43.00,146.01,121.10,259,39.60,98.40,238.90,475.10,580.30
69030,Sankey Brook at Causey Bridges,53.43,-2.62,358748,392213,7.40,147.74,24.30,51,9.80,29.40,47.00,76.90,177.00
69032,Alt at Kirkby,53.48,-2.92,339160,398332,8.90,96.61,13.20,35,10.60,20.90,33.90,51.40,96.20
69043,Irk at Collyhurst Weir,53.49,-2.23,384850,399691,33.00,72.30,45.30,116,29.80,72.70,104.90,175.70,246.80
70002,Douglas at Wanes Blades Bridge,53.61,-2.79,347622,412572,4.40,189.78,49.00,97,6.40,29.70,80.00,177.30,456.40
7001,Findhorn at Shenachie,57.38,-3.95,282558,833548,252.40,415.59,138.90,560,251.30,340.00,559.70,761.00,935.30
7002,Findhorn at Forres,57.60,-3.64,301853,858387,9.60,781.77,117.20,442,10.70,230.50,408.50,725.50,935.30
7003,Lossie at Sheriffmills,57.65,-3.35,319402,862632,17.70,216.66,79.10,192,18.10,42.30,196.20,326.00,521.70
7005,Divie at Dunphail,57.51,-3.66,300541,848032,117.30,164.63,77.40,316,117.40,227.90,313.30,406.50,544.40
7006,Lossie at Torwinny,57.52,-3.45,313442,848903,198.50,20.62,86.60,346,195.80,268.80,344.20,429.30,521.70
71001,Ribble at Samlesbury,53.77,-2.62,358922,430412,9.50,1144.70,94.70,220,6.50,89.00,197.20,390.90,691.40
71004,Calder at Whalley Weir,53.82,-2.41,372926,436054,39.90,317.44,94.30,221,40.90,113.10,209.80,348.20,556.40
71006,Ribble at Henthorn,53.85,-2.42,372190,439170,38.80,446.17,87.50,238,41.00,113.60,203.10,423.40,691.40
71008,Hodder at Hodder Place,53.85,-2.45,370410,439923,42.00,258.13,122.40,246,44.00,112.70,223.90,412.50,545.50
71014,Darwen at Blue Bridge,53.74,-2.66,356453,427786,8.10,136.21,76.90,163,11.10,62.10,151.90,283.20,401.70
72002,Wyre at St Michaels,53.86,-2.82,346329,441132,4.40,273.75,71.40,146,6.00,16.90,113.30,359.70,560.50
72004,Lune at Caton,54.08,-2.72,352935,465318,10.70,985.37,137.20,275,12.00,88.30,264.40,476.90,734.40
72005,Lune at Killington,54.31,-2.58,362205,490633,82.80,219.24,174.50,317,83.00,198.10,294.30,469.40,675.60
72007,Brock at upstream of A6,53.86,-2.74,351232,440548,24.00,31.51,109.00,196,21.30,87.30,171.30,379.80,520.90
72009,Wenning at Wennington,54.13,-2.59,361542,470082,39.40,139.36,91.30,231,42.90,115.10,202.50,387.90,720.20
72014,Conder at Galgate,53.99,-2.79,348160,455371,16.60,28.99,93.40,131,19.10,44.90,105.10,274.80,465.80
72015,Lune at Lunes Bridge,54.42,-2.60,361210,502901,165.00,140.83,145.90,318,162.90,220.20,293.40,453.80,675.10
73005,Kent at Sedgwick,54.28,-2.76,350877,487421,18.90,212.24,153.40,234,18.00,74.80,205.80,436.80,815.50
73009,Sprint at Sprint Mill,54.36,-2.75,351477,496106,57.50,34.70,224.50,334,58.40,148.50,316.80,580.90,775.80
73010,Leven at Newby Bridge,54.27,-2.97,336599,486267,37.30,247.97,218.90,229,31.30,49.80,176.60,504.70,893.20
73011,Mint at Mint Bridge,54.34,-2.73,352411,494470,50.30,65.44,138.00,231,51.20,133.50,210.90,388.10,551.90
73014,Brathay at Jeffy Knotts,54.42,-2.99,335965,503406,41.90,56.58,299.80,291,43.90,89.50,236.60,580.00,893.20
73015,Keer at High Keer Weir,54.14,-2.73,352320,471893,7.70,30.04,83.00,93,8.90,30.40,92.90,149.10,271.90
74001,Duddon at Duddon Hall,54.30,-3.24,319526,489585,14.80,85.25,210.30,315,17.50,131.80,296.10,541.10,820.80
74005,Ehen at Braystones,54.44,-3.53,300909,506051,10.10,129.50,165.80,219,9.50,75.30,157.60,500.00,893.60
74006,Calder at Calder Hall,54.43,-3.49,303501,504491,26.40,43.90,161.40,284,26.70,94.40,270.00,472.70,672.90
74007,Esk at Cropple How,54.37,-3.34,313100,497770,6.20,70.04,231.80,318,6.20,79.10,281.00,624.00,973.10
75003,Derwent at Ouse Bridge,54.68,-3.24,319878,532134,67.70,363.04,247.40,334,67.30,87.60,307.70,610.00,945.40
75004,Cocker at Southwaite Bridge,54.64,-3.35,313090,528090,59.50,116.17,289.70,300,57.40,96.80,274.20,548.90,853.00
75017,Ellen at Bullgill,54.73,-3.41,309600,538400,26.60,102.56,78.40,164,27.80,60.80,157.20,284.60,650.00
76003,Eamont at Udford,54.67,-2.66,357569,530450,90.90,406.99,187.90,333,92.50,150.00,287.90,580.00,945.40
76005,Eden at Temple Sowerby,54.65,-2.61,360452,528316,92.40,618.21,98.80,283,93.50,145.40,250.00,498.90,796.60
76007,Eden at Sheepmount,54.90,-2.95,339000,557103,9.90,2276.00,103.30,248,8.00,85.50,210.40,488.10,945.40
76008,Irthing at Greenholme,54.91,-2.80,348619,558073,18.40,333.42,76.00,225,18.70,75.00,218.70,403.00,621.40
76011,Coal Burn at Coalburn,55.09,-2.48,369368,577778,275.30,1.63,47.20,305,274.10,291.90,304.90,323.90,332.30
76014,Eden at Kirkby Stephen,54.48,-2.35,377300,509700,158.10,66.82,149.00,395,158.70,220.40,377.00,601.90,708.80
77002,Esk at Canonbie,55.07,-2.95,339668,575053,22.40,495.40,165.60,279,23.20,143.10,277.90,411.10,691.70
77003,Liddel Water at Rowanburnfoot,55.07,-2.92,341457,575935,27.10,319.30,129.20,266,27.80,129.00,253.20,422.40,615.40
77004,Kirtle Water at Mossknowe,55.01,-3.12,328502,569268,20.80,69.93,71.30,142,21.50,67.20,124.10,247.40,423.60
78003,Annan at Brydekirk,55.02,-3.27,319047,570414,10.00,925.03,125.60,226,10.80,61.70,204.90,425.20,820.00
78004,Kinnel Water at Redhall,55.17,-3.45,307718,586862,53.70,76.17,98.70,243,54.00,96.90,236.40,378.80,658.10
78006,Annan at Woodfoot,55.29,-3.42,309990,600900,82.30,218.03,206.10,352,83.90,158.00,346.30,564.40,820.00
79002,Nith at Friars Carse,55.15,-3.69,292346,585121,19.80,797.71,157.80,294,20.60,125.20,288.90,470.40,722.70
79003,Nith at Hall Bridge,55.39,-4.08,268410,612970,173.00,153.02,121.60,330,171.30,205.50,308.70,492.20,698.30
79004,Scar Water at Capenoch,55.23,-3.82,284526,594078,48.50,142.68,196.00,319,49.40,162.40,319.70,461.70,597.20
79005,Cluden Water at Fiddlers Ford,55.10,-3.68,292860,579521,22.90,237.22,129.80,216,22.20,90.20,211.60,343.50,596.20
79006,Nith at Drumlanrig,55.27,-3.80,285776,599307,52.20,469.04,154.00,328,54.50,187.30,320.40,486.60,722.70
80001,Urr at Dalbeattie,54.93,-3.84,282132,561018,10.30,197.06,79.60,155,3.40,61.40,156.60,245.60,423.30
80002,Dee at Glenlochar,54.96,-3.98,273360,564115,42.60,810.38,124.10,258,42.30,90.60,237.20,459.30,813.30
80003,White Laggan Burn at Loch Dee,55.07,-4.40,246790,578120,226.00,5.74,246.00,440,225.90,287.40,455.70,562.40,657.60
80004,Green Burn at Loch Dee,55.08,-4.38,248057,579086,228.00,2.62,189.90,374,229.80,259.70,365.20,503.70,550.60
80005,Dargall Lane at Loch Dee,55.08,-4.43,245069,578706,259.00,2.07,307.50,474,258.70,349.60,456.90,619.60,714.40
80006,Blackwater at Loch Dee,55.09,-4.39,247811,579675,229.00,15.72,219.70,382,224.50,230.40,373.60,544.30,714.40
8004,Avon at Delnashaugh,57.40,-3.36,318548,835197,156.00,540.75,178.10,525,151.40,310.50,493.00,767.10,1306.10
8005,Spey at Boat of Garten,57.25,-3.75,294691,819208,197.30,1261.30,174.20,522,199.10,264.40,497.50,814.30,1291.90
8006,Spey at Boat o Brig,57.55,-3.14,331850,851788,43.10,2852.39,156.90,460,43.30,229.10,420.60,749.70,1306.10
8009,Dulnain at Balnaan Bridge,57.30,-3.70,297722,824763,223.70,272.20,117.90,461,222.40,274.10,448.70,673.50,875.40
8011,Livet at Minmore,57.34,-3.33,320160,829003,215.10,102.78,168.40,445,215.50,306.50,408.20,655.50,803.40
8013,Feshie at Feshie Bridge,57.12,-3.90,284986,804711,231.90,229.63,180.80,618,236.00,327.20,619.50,913.60,1263.20
81002,Cree at Newton Stewart,54.96,-4.48,241266,565330,4.80,366.21,118.70,238,5.20,65.90,212.60,456.90,843.00
81003,Luce at Airyhemming,54.90,-4.84,218017,559917,19.00,170.70,71.70,182,19.50,101.40,181.00,259.50,438.20
81004,Bladnoch at Low Malzie,54.86,-4.52,238212,554496,11.30,329.07,44.60,105,11.90,50.10,94.10,173.40,317.60
81006,Water of Minnoch at Minnoch Bridge,55.04,-4.56,236287,574600,27.40,139.01,167.00,323,29.10,108.20,309.20,547.80,843.00
81007,Water of Fleet at Rusko,54.91,-4.20,259198,558998,7.60,77.39,131.80,195,8.00,86.00,171.30,345.20,707.80
82001,Girvan at Robstone,55.26,-4.81,221670,599665,9.10,243.63,105.90,193,10.00,58.40,189.00,323.00,656.70
82003,Stinchar at Balnowlart,55.11,-4.97,210749,583222,8.60,324.54,110.40,201,8.50,99.80,184.30,328.30,623.80
83003,Ayr at Catrine,55.50,-4.34,252522,625909,89.90,167.25,89.50,281,86.00,178.30,271.30,400.00,591.50
83004,Lugar Water at Langholm,55.47,-4.36,250770,621755,80.70,203.81,70.20,255,82.60,143.10,248.20,382.00,560.50
83006,Ayr at Mainholm,55.46,-4.59,236179,621634,2.50,579.03,74.00,219,4.70,86.10,212.10,368.20,591.50
83007,Lugton Water at Eglinton Castle,55.64,-4.68,231579,642059,7.00,56.94,46.50,99,7.70,31.90,93.30,170.20,255.90
83009,Garnock at Kilwinning,55.65,-4.69,230685,642409,4.40,175.26,79.50,159,4.40,39.00,111.30,352.90,520.40
83010,Irvine at Newmilns,55.61,-4.33,253252,637188,60.90,75.48,77.70,232,62.30,141.20,240.60,309.40,383.30
83013,Irvine at Glenfield,55.60,-4.49,242996,636996,20.60,211.89,63.90,167,21.50,55.40,160.10,275.20,383.30
84001,Kelvin at Killermont,55.91,-4.31,255839,670532,27.00,335.21,77.60,138,26.70,48.20,89.90,325.40,577.40
84004,Clyde at Sills of Clyde,55.66,-3.71,292837,642386,183.10,742.26,135.10,343,180.10,217.70,327.90,489.90,745.20
84005,Clyde at Blairston,55.80,-4.07,270435,657942,17.60,1699.36,97.30,279,17.20,157.10,264.00,426.90,745.20
84008,Rotten Calder Water at Redlees,55.82,-4.11,267959,660439,16.80,55.41,53.00,192,16.90,100.30,203.00,256.50,372.50
84009,Nethan at Kirkmuirhill,55.67,-3.89,280979,642910,121.80,67.08,88.00,291,125.60,204.50,284.20,398.10,521.30
84012,White Cart Water at Hawkhead,55.84,-4.40,249886,662918,5.10,236.26,63.90,146,6.10,30.20,154.90,249.40,372.70
84013,Clyde at Daldowie,55.83,-4.12,267184,661676,7.50,1901.23,92.30,265,9.90,131.00,251.90,417.60,745.20
84014,Avon Water at Fairholm,55.74,-3.99,275373,651879,53.90,263.07,62.00,245,53.30,162.10,237.80,338.60,474.30
84016,Luggie Water at Condorrat,55.93,-4.02,273917,672559,68.00,35.34,56.00,139,68.60,89.10,139.60,191.50,224.20
84017,Black Cart Water at Milliken Park,55.83,-4.54,241123,662024,24.80,103.16,89.30,175,21.50,39.50,146.10,369.80,520.40
84018,Clyde at Tulliford Mill,55.64,-3.76,289388,640314,173.70,938.36,126.20,330,174.40,213.80,312.90,472.80,745.20
84019,North Calder Water at Calderpark,55.84,-4.11,268097,662490,12.50,129.34,49.90,151,13.80,69.20,152.70,228.10,301.40
84020,Glazert Water at Milton of Campsie,55.96,-4.15,265646,676198,38.70,51.92,143.70,274,40.60,75.70,259.80,489.00,577.40
84022,Duneaton at Maidencots,55.52,-3.70,293046,625977,228.30,111.67,118.40,340,224.30,267.60,334.50,426.40,591.50
84026,Allander Water at Milngavie,55.93,-4.31,255850,673559,33.70,30.65,101.00,187,36.60,79.10,176.40,307.30,401.60
84030,White Cart Water at Overlee,55.79,-4.27,257963,657501,45.80,106.42,64.20,198,47.10,123.80,194.00,274.70,372.70
85001,Leven at Linnbrane,55.99,-4.58,239409,680307,5.30,786.11,179.60,238,5.40,9.20,197.60,518.50,1120.00
85002,Endrick Water at Gaidrew,56.05,-4.43,248465,686588,9.50,219.07,108.90,192,14.60,50.00,155.20,404.10,577.40
85003,Falloch at Glen Falloch,56.34,-4.72,232106,719470,9.50,79.92,256.10,446,15.10,199.30,447.40,703.20,1120.00
85004,Luss Water at Luss,56.10,-4.64,235635,692880,16.20,35.48,352.40,348,15.30,153.50,338.80,573.70,732.60
88001,Carradale at Dippen,55.58,-5.50,179727,637673,8.70,58.84,154.30,186,3.20,58.60,193.60,298.10,420.20
89002,Linne nam Beathach at Victoria Bridge,56.54,-4.81,227099,742193,168.30,49.85,275.20,437,169.20,220.50,396.60,748.10,1082.30
89003,Orchy at Glen Orchy,56.45,-4.85,224259,731917,69.40,249.92,252.30,408,69.60,188.50,365.60,706.80,1082.30
89005,Lochy at Inverlochy,56.40,-4.92,219692,727471,56.80,47.04,298.70,425,53.20,214.00,410.10,686.30,1112.30
89007,Abhainn a' Bhealaich at Braevallich,56.22,-5.30,195706,707536,46.10,23.55,128.60,327,47.30,230.40,337.60,429.50,511.60
90003,Nevis at Claggan,56.82,-5.09,211592,774257,3.60,69.21,441.80,511,5.40,94.20,521.00,888.80,1342.60
9002,Deveron at Muiresk,57.54,-2.49,370551,849833,25.30,961.45,100.90,244,25.70,114.10,209.50,428.90,754.20
9003,Isla at Grange,57.54,-2.85,349350,850614,91.70,179.98,84.60,208,93.10,135.60,201.70,292.20,416.10
9004,Bogie at Redcraig,57.42,-2.80,351934,837440,120.00,182.43,132.00,297,120.50,179.80,290.50,427.20,707.00
9005,Allt Deveron at Cabrach,57.35,-3.03,337839,829102,288.00,68.08,118.30,439,289.20,340.10,436.50,549.90,720.80
92001,Shiel at Shielfoot,56.76,-5.82,166586,770178,3.20,255.12,308.40,259,3.20,8.30,226.20,572.00,943.10
93001,Carron at New Kelso,57.43,-5.43,194186,842885,5.60,139.21,291.60,356,6.80,86.70,344.40,645.30,1052.70
94001,Ewe at Poolewe,57.76,-5.60,186002,880330,4.60,441.21,222.00,311,4.60,29.00,310.50,583.00,1007.30
95001,Inver at Little Assynt,58.17,-5.15,214693,924921,60.30,138.47,190.30,292,63.10,79.80,269.70,541.60,1108.60
96001,Halladale at Halladale,58.48,-3.90,289125,956081,23.20,193.72,55.10,175,22.90,110.50,167.40,254.10,568.70
96002,Naver at Apigill,58.48,-4.21,271363,956765,5.10,474.01,111.70,224,7.70,97.70,187.70,402.90,959.00
96004,Strathmore at Allnabad,58.35,-4.64,245314,942895,21.90,105.36,192.30,325,25.30,150.00,306.90,535.30,851.40
97002,Thurso at Halkirk,58.52,-3.49,313123,959561,30.20,414.48,37.60,149,30.20,69.90,142.30,225.80,434.80
